Id,Name,Url,City,State,Lat,Lon,CovidAnnouncement
100654,Alabama A & M University,www.aamu.edu/,Normal,AL,34.783368,-86.568502,
100663,University of Alabama at Birmingham,https://www.uab.edu,Birmingham,AL,33.505697,-86.799345,
100690,Amridge University,www.amridgeuniversity.edu,Montgomery,AL,32.362609,-86.17401,
100706,University of Alabama in Huntsville,www.uah.edu,Huntsville,AL,34.724557,-86.640449,
100724,Alabama State University,www.alasu.edu,Montgomery,AL,32.364317,-86.295677,
100751,The University of Alabama,www.ua.edu/,Tuscaloosa,AL,33.211875,-87.545978,
100760,Central Alabama Community College,www.cacc.edu,Alexander City,AL,32.92478,-85.945266,
100812,Athens State University,www.athens.edu,Athens,AL,34.806793,-86.964698,
100830,Auburn University at Montgomery,www.aum.edu,Montgomery,AL,32.36736,-86.177544,
100858,Auburn University,www.auburn.edu,Auburn,AL,32.599378,-85.488258,
100937,Birmingham-Southern College,www.bsc.edu/,Birmingham,AL,33.513774,-86.850552,
101028,Chattahoochee Valley Community College,www.cv.edu,Phenix City,AL,32.42391,-85.031485,
101116,South University-Montgomery,"www.southuniversity.edu/montgomery#location=Montgomery,%20AL",Montgomery,AL,32.342684,-86.216488,
101143,Enterprise State Community College,www.escc.edu,Enterprise,AL,31.297496,-85.836956,
101161,Coastal Alabama Community College,www.coastalalabama.edu,Bay Minette,AL,30.851343,-87.778193,
101189,Faulkner University,www.faulkner.edu,Montgomery,AL,32.384181,-86.21641,
101240,Gadsden State Community College,www.gadsdenstate.edu,Gadsden,AL,33.994001,-85.991438,
101277,New Beginning College of Cosmetology,www.nbccosmetology.com,Albertville,AL,34.27871,-86.196931,
101286,George C Wallace Community College-Dothan,www.wallace.edu,Dothan,AL,31.315274,-85.465836,
101295,George C Wallace State Community College-Hanceville,www.wallacestate.edu,Hanceville,AL,34.072439,-86.781935,
101301,George C Wallace State Community College-Selma,www.wccs.edu,Selma,AL,32.445917,-87.013294,
101365,Herzing University-Birmingham,https://www.herzing.edu/,Birmingham,AL,33.468466,-86.832465,
101435,Huntingdon College,www.huntingdon.edu,Montgomery,AL,32.351034,-86.284366,
101453,Heritage Christian University,www.hcu.edu,Florence,AL,34.856153,-87.663051,
101462,J. F. Drake State Community and Technical College,https://www.drakestate.edu,Huntsville,AL,34.771858,-86.572885,
101471,J F Ingram State Technical College,www.istc.edu,Deatsville,AL,32.582312,-86.392369,
101480,Jacksonville State University,www.jsu.edu/,Jacksonville,AL,33.822938,-85.765321,
101505,Jefferson State Community College,www.jeffersonstate.edu/,Birmingham,AL,33.652535,-86.707233,
101514,John C Calhoun State Community College,https://calhoun.edu,Tanner,AL,34.645844,-86.949674,
101541,Judson College,www.judson.edu,Marion,AL,32.629253,-87.315206,
101569,Lawson State Community College,www.lawsonstate.edu,Birmingham,AL,33.450814,-86.888844,
101587,University of West Alabama,www.uwa.edu,Livingston,AL,32.588132,-88.186329,
101602,Lurleen B Wallace Community College,https://www.lbwcc.edu,Andalusia,AL,31.322947,-86.452262,
101648,Marion Military Institute,www.marionmilitary.edu,Marion,AL,32.623734,-87.322041,
101675,Miles College,www.miles.edu,Fairfield,AL,33.482442,-86.908751,
101693,University of Mobile,www.umobile.edu,Mobile,AL,30.793247,-88.128934,
101709,University of Montevallo,www.montevallo.edu,Montevallo,AL,33.10625,-86.865099,
101736,Northwest-Shoals Community College,https://www.nwscc.edu,Muscle Shoals,AL,34.739788,-87.678089,
101879,University of North Alabama,www.una.edu,Florence,AL,34.806738,-87.681361,
101897,Northeast Alabama Community College,https://www.nacc.edu,Rainsville,AL,34.545471,-85.911664,
101912,Oakwood University,https://www2.oakwood.edu,Huntsville,AL,34.756344,-86.652705,
101994,Reid State Technical College,www.rstc.edu,Evergreen,AL,31.460265,-86.964797,
102030,Bishop State Community College,www.bishop.edu,Mobile,AL,30.693972,-88.056982,
102049,Samford University,www.samford.edu,Birmingham,AL,33.464128,-86.791799,
102058,Selma University,selmauniversity.edu,Selma,AL,32.420387,-87.032392,
102067,Shelton State Community College,www.sheltonstate.edu,Tuscaloosa,AL,33.120531,-87.56148,
102076,Snead State Community College,www.snead.edu,Boaz,AL,34.201495,-86.169897,
102094,University of South Alabama,www.southalabama.edu,Mobile,AL,30.696033,-88.178711,
102234,Spring Hill College,www.shc.edu,Mobile,AL,30.694751,-88.138199,
102270,Stillman College,https://stillman.edu,Tuscaloosa,AL,33.200006,-87.585278,
102298,Talladega College,www.talladega.edu,Talladega,AL,33.433472,-86.112704,
102313,H Councill Trenholm State Community College,www.trenholmstate.edu,Montgomery,AL,32.350109,-86.343057,
102368,Troy University,www.troy.edu,Troy,AL,31.800672,-85.957094,
102377,Tuskegee University,www.tuskegee.edu,Tuskegee,AL,32.4309,-85.708492,
102395,United States Sports Academy,www.ussa.edu,Daphne,AL,30.639329,-87.91163,
102429,Bevill State Community College,www.bscc.edu,Jasper,AL,33.836929,-87.266406,
102553,University of Alaska Anchorage,www.uaa.alaska.edu,Anchorage,AK,61.190163,-149.82619,
102580,Alaska Bible College,www.akbible.edu/,Palmer,AK,61.598553,-149.111972,
102614,University of Alaska Fairbanks,www.uaf.edu,Fairbanks,AK,64.85756,-147.823146,
102632,University of Alaska Southeast,www.uas.alaska.edu,Juneau,AK,58.384846,-134.638255,
102669,Alaska Pacific University,www.alaskapacific.edu,Anchorage,AK,61.190968,-149.804168,
102711,Alaska Vocational Technical Center,www.avtec.edu/,Seward,AK,60.110626,-149.444487,
102845,Charter College,https://www.chartercollege.edu,Vancouver,WA,45.617798,-122.494766,
103501,Alaska Career College,www.alaskacareercollege.edu,Anchorage,AK,61.181443,-149.856954,
103741,Empire Beauty School-Tucson,www.empire.edu,Tucson,AZ,32.235657,-110.927187,
103893,Carrington College-Phoenix North,https://carrington.edu/,Phoenix,AZ,33.561689,-112.116105,
103909,Carrington College-Mesa,https://carrington.edu/,Mesa,AZ,33.39248,-111.853218,
103927,Carrington College-Tucson,https://carrington.edu/,Tucson,AZ,32.224391,-110.983056,
103945,CollegeAmerica-Flagstaff,www.collegeamerica.edu,Flagstaff,AZ,35.194495,-111.657673,
103954,Arizona Academy of Beauty-East,www.arizonaacademy.com,Tucson,AZ,32.237253,-110.872305,
103963,Platt College-Arizona Automotive Institute Arizona,www.aai.edu,Glendale,AZ,33.537249,-112.157344,
104090,Brookline College-Phoenix,www.brooklinecollege.edu,Phoenix,AZ,33.566102,-112.112473,
104151,Arizona State University-Tempe,www.asu.edu/,Tempe,AZ,33.417721,-111.934383,
104160,Arizona Western College,www.azwestern.edu,Yuma,AZ,32.689306,-114.495968,
104179,University of Arizona,https://www.arizona.edu,Tucson,AZ,32.232672,-110.950815,
104188,Southwest University of Visual Arts-Tucson,www.suva.edu,Tucson,AZ,32.252879,-110.927265,
104346,Central Arizona College,www.centralaz.edu,Coolidge,AZ,32.957092,-111.652501,
104391,Charles of Italy Beauty College,www.charlesofitaly.edu,Lake Havasu City,AZ,34.477485,-114.332686,
104425,Cochise County Community College District,https://www.cochise.edu,Sierra Vista,AZ,31.564597,-110.246946,
104434,Empire Beauty School-Flagstaff,www.empire.edu,Flagstaff,AZ,35.197151,-111.625936,
104443,Empire Beauty School-Chandler,www.empire.edu,Chandler,AZ,33.347586,-111.860423,
104504,Cortiva Institute-Tucson,www.cortiva.com/,Tucson,AZ,32.21901,-110.856785,
104568,Avalon School of Cosmetology-Mesa,avalon.edu/locations/mesa-az/,Mesa,AZ,33.376583,-111.858305,
104577,Eastern Arizona College,www.eac.edu,Thatcher,AZ,32.843664,-109.76234,
104586,Embry-Riddle Aeronautical University-Prescott,prescott.erau.edu/,Prescott,AZ,34.616766,-112.449741,
104665,School of Architecture at Taliesin,www.taliesin.edu,Scottsdale,AZ,33.607097,-111.845411,
104708,Glendale Community College,www.gccaz.edu,Glendale,AZ,33.570226,-112.190735,
104717,Grand Canyon University,www.gcu.edu,Phoenix,AZ,33.513231,-112.129929,
105145,GateWay Community College,www.gatewaycc.edu,Phoenix,AZ,33.449686,-111.997077,
105154,Mesa Community College,www.mesacc.edu,Mesa,AZ,33.390323,-111.871255,
105206,Mohave Community College,https://www.mohave.edu,Kingman,AZ,35.270996,-114.029838,
105215,Universal Technical Institute of Arizona Inc-Motorcycle Mechanics Institute Division,www.uti.edu/,Phoenix,AZ,33.684428,-112.121336,
105297,Dine College,https://www.dinecollege.edu,Tsaile,AZ,36.293328,-109.21684,
105330,Northern Arizona University,https://nau.edu/,Flagstaff,AZ,35.188449,-111.653724,
105349,Northland Pioneer College,www.npc.edu,Holbrook,AZ,34.93031,-110.142199,
105367,Ottawa University-Phoenix,www.ottawa.edu,Phoenix,AZ,33.572173,-112.113001,
105428,Phoenix College,www.phoenixcollege.edu,Phoenix,AZ,33.481361,-112.088293,
105482,Cortiva Institute-Scottsdale,www.cortiva.com/,Scottsdale,AZ,33.466153,-111.90807,
105525,Pima Community College,www.pima.edu,Tucson,AZ,32.222125,-110.886659,
105534,Pima Medical Institute-Tucson,pmi.edu,Tucson,AZ,32.248067,-110.878783,
105543,Pima Medical Institute-Albuquerque,pmi.edu,Albuquerque,NM,35.104855,-106.59488,
105589,Prescott College,https://www.prescott.edu,Prescott,AZ,34.5452,-112.477185,
105659,Refrigeration School Inc,https://www.refrigerationschool.com,Phoenix,AZ,33.448692,-111.989357,
105668,Rio Salado College,www.rio.maricopa.edu,Tempe,AZ,33.413309,-111.97417,
105677,Roberto-Venn School of Luthiery,www.roberto-venn.com,Phoenix,AZ,33.45489,-112.086161,
105747,Scottsdale Community College,www.scottsdalecc.edu,Scottsdale,AZ,33.51135,-111.885186,
105792,South Mountain Community College,www.southmountaincc.edu,Phoenix,AZ,33.382406,-112.032635,
105899,Arizona Christian University,www.arizonachristian.edu,Glendale,AZ,33.622952,-112.181776,
106041,Universal Technical Institute of Arizona Inc,www.uti.edu,Avondale,AZ,33.453005,-112.288123,
106111,Empire Beauty School-NW Phoenix,www.empire.edu,Phoenix,AZ,33.538093,-112.118168,
106148,Yavapai College,www.YC.EDU,Prescott,AZ,34.547495,-112.453395,
106245,University of Arkansas at Little Rock,ualr.edu/www/,Little Rock,AR,34.723254,-92.339778,
106263,University of Arkansas for Medical Sciences,www.uams.edu,Little Rock,AR,34.749048,-92.320046,
106306,Arkansas Baptist College,www.arkansasbaptist.edu,Little Rock,AR,34.734751,-92.290555,
106315,Arkansas Beauty School-Little Rock,arkbeautyschool.com,Little Rock,AR,34.672171,-92.343366,
106324,Arkansas Beauty College,https://www.arkansasbeautycollege.us/,Russellville,AR,35.27902,-93.135369,
106342,Lyon College,www.lyon.edu,Batesville,AR,35.777619,-91.625354,
106351,Arkansas College of Barbering and Hair Design,www.arkansascollegeofbarbering.com,North Little Rock,AR,34.753843,-92.266429,
106360,Arthur's Beauty College Inc-Fort Smith,www.arthursbeautycollege.com,Fort Smith,AR,35.379955,-94.410967,
106397,University of Arkansas,https://www.uark.edu,Fayetteville,AR,36.070009,-94.176981,
106412,University of Arkansas at Pine Bluff,www.uapb.edu,Pine Bluff,AR,34.244031,-92.018683,
106449,Arkansas State University-Beebe,www.asub.edu,Beebe,AR,35.074176,-91.895351,
106458,Arkansas State University-Main Campus,www.astate.edu/,Jonesboro,AR,35.842388,-90.679988,
106467,Arkansas Tech University,www.atu.edu,Russellville,AR,35.293237,-93.13562,
106485,University of Arkansas at Monticello,www.uamont.edu/,Monticello,AR,33.590909,-91.811153,
106494,Arthur's Beauty College Inc-Jacksonville,arthursbeautycollege.com,Jacksonville,AR,34.891572,-92.102579,
106546,Baptist Health College Little Rock,https://www.bhclr.edu,Little Rock,AR,34.713115,-92.40692,
106625,Black River Technical College,www.blackrivertech.edu,Pocahontas,AR,36.239793,-90.951033,
106704,University of Central Arkansas,www.uca.edu,Conway,AR,35.077945,-92.457672,
106713,Central Baptist College,www.cbc.edu,Conway,AR,35.083838,-92.445021,
106795,Cossatot Community College of the University of Arkansas,www.cccua.edu/,De Queen,AR,34.043389,-94.3673,
106810,Crowley's Ridge College,www.crc.edu/,Paragould,AR,36.064845,-90.584395,
106829,Crowley's Ridge Technical Institute,www.crti.tec.ar.us,Forrest City,AR,35.039816,-90.767321,
106883,East Arkansas Community College,https://WWW.EACC.EDU,Forrest City,AR,35.041655,-90.767726,
106892,Eastern College of Health Vocations-Little Rock,www.easterncollege.edu,Little Rock,AR,34.75128,-92.341891,
106908,Imagine-Paul Mitchell Partner School,paulmitchell.edu/littlerock,North Little Rock,AR,34.789913,-92.222202,
106980,National Park College,www.np.edu,Hot Springs,AR,34.512687,-93.119248,
106999,University of Arkansas Community College-Batesville,www.uaccb.edu,Batesville,AR,35.792923,-91.615852,
107044,Harding University,www.harding.edu,Searcy,AR,35.247386,-91.726143,
107071,Henderson State University,https://www.hsu.edu,Arkadelphia,AR,34.128155,-93.059703,
107080,Hendrix College,www.hendrix.edu,Conway,AR,35.101565,-92.443256,
107099,Hot Springs Beauty College,hotspringsbeautycollege.com,Hot Springs,AR,34.496057,-93.037277,
107123,Jefferson Regional Medical Center School of Nursing,www.jrmc.org,Pine Bluff,AR,34.187831,-92.018045,
107141,John Brown University,www.jbu.edu,Siloam Springs,AR,36.189812,-94.560283,
107220,Career Academy of Hair Design,www.beautynwa.com,Springdale,AR,36.167605,-94.12947,
107293,Academy of Salon and Spa,www.academysalonspa.com,Fort Smith,AR,35.38097,-94.41616,
107318,Arkansas State University Mid-South,www.asumidsouth.edu,West Memphis,AR,35.145736,-90.22285,
107327,Arkansas Northeastern College,www.anc.edu,Blytheville,AR,35.898597,-89.921005,
107442,New Tyler Barber College Inc,newtylerbarbercollege.edu,North Little Rock,AR,34.760085,-92.254171,
107460,North Arkansas College,www.northark.edu,Harrison,AR,36.219909,-93.08844,
107488,Northwest Technical Institute,www.nwti.edu,Springdale,AR,36.178032,-94.115346,
107512,Ouachita Baptist University,www.obu.edu,Arkadelphia,AR,34.126093,-93.052471,
107521,Arkansas State University Three Rivers,www.coto.edu,Malvern,AR,34.378745,-92.821416,
107549,Ozarka College,www.ozarka.edu,Melbourne,AR,36.053031,-91.896355,
107558,University of the Ozarks,https://www.ozarks.edu,Clarksville,AR,35.476278,-93.467221,
107585,University of Arkansas Community College-Morrilton,www.uaccm.edu,Morrilton,AR,35.172136,-92.728507,
107600,Philander Smith College,https://www.philander.edu,Little Rock,AR,34.737131,-92.283015,
107619,Phillips Community College of the University of Arkansas,www.pccua.edu,Helena,AR,34.546155,-90.616884,
107637,Southeast Arkansas College,www.seark.edu,Pine Bluff,AR,34.210309,-92.025936,
107655,Professional Cosmetology Education Center,www.pcec.edu,El Dorado,AR,33.216032,-92.664101,
107664,University of Arkansas-Pulaski Technical College,uaptc.edu,North Little Rock,AR,34.782783,-92.299184,
107725,University of Arkansas Hope-Texarkana,www.uaht.edu,Hope,AR,33.641665,-93.596762,
107743,University of Arkansas Community College Rich Mountain,www.uarichmountain.edu,Mena,AR,34.591449,-94.219799,
107789,Paul Mitchell the School-Arkansas,https://paulmitchell.edu/arkansas/,Fayetteville,AR,36.126373,-94.153892,
107831,Searcy Beauty College,searcybeautycollege.com/,Searcy,AR,35.239148,-91.735135,
107840,Shorter College,www.shortercollege.edu,N Little Rock,AR,34.75933,-92.261331,
107877,Williams Baptist University,https://williamsbaptistuniversity.com/,Walnut Ridge,AR,36.125676,-90.940277,
107974,South Arkansas Community College,www.southark.edu,El Dorado,AR,33.209446,-92.666087,
107983,Southern Arkansas University Main Campus,https://www.saumag.edu,Magnolia,AR,33.291618,-93.235922,
107992,Southern Arkansas University Tech,www.sautech.edu,Camden,AR,33.628367,-92.721629,
108065,Velvatex College of Beauty Culture,www.velvatexcollege.com,Little Rock,AR,34.735685,-92.289597,
108092,University of Arkansas-Fort Smith,uafs.edu/,Fort Smith,AR,35.384184,-94.373729,
108232,Academy of Art University,www.academyart.edu,San Francisco,CA,37.787943,-122.400578,
108269,Academy of Chinese Culture and Health Sciences,www.acchs.edu,Oakland,CA,37.805972,-122.269839,
108348,The Academy of Radio and TV Broadcasting,WWW.ARBRADIO.COM,Huntington Beach,CA,33.729535,-117.987762,
108649,Avalon School of Cosmetology-Alameda,avalon.edu/locations/alameda-ca/,Alameda,CA,37.764203,-122.243566,
108667,College of Alameda,alameda.peralta.edu/,Alameda,CA,37.781017,-122.279303,
108807,Allan Hancock College,www.hancockcollege.edu/,Santa Maria,CA,34.943716,-120.421144,
108852,American Academy of Dramatic Arts-Los Angeles,www.aada.edu,Los Angeles,CA,34.095378,-118.343701,
108861,American Baptist Seminary of the West,www.absw.edu,Berkeley,CA,37.865252,-122.256149,
108870,American Film Institute Conservatory,www.AFI.com,Los Angeles,CA,34.10767,-118.310018,
108977,American Beauty College,www.americanbeautycollege.com,West Covina,CA,34.069367,-117.936959,
109040,American Career College-Los Angeles,americancareercollege.edu,Los Angeles,CA,34.079323,-118.292481,
109086,American Conservatory Theater,www.act-sf.org,San Francisco,CA,37.787343,-122.40475,
109208,American River College,https://www.arc.losrios.edu/,Sacramento,CA,38.65085,-121.349672,
109350,Antelope Valley College,www.avc.edu,Lancaster,CA,34.676207,-118.186166,
109651,Art Center College of Design,www.artcenter.edu,Pasadena,CA,34.169031,-118.185102,
109721,Associated Technical College-Los Angeles,www.atcla.edu,Los Angeles,CA,34.056102,-118.272364,
109730,Associated Technical College-San Diego,www.atcsd.edu,San Diego,CA,32.715375,-117.157988,
109785,Azusa Pacific University,www.apu.edu,Azusa,CA,34.130047,-117.888375,
109819,Bakersfield College,www.bakersfieldcollege.edu/,Bakersfield,CA,35.40911,-118.973753,
109907,Barstow Community College,www.barstow.edu,Barstow,CA,34.870285,-117.023412,
109934,Bellus Academy-Chula Vista,www.bellusacademy.edu,Chula Vista,CA,32.614773,-117.083738,
110060,Bethesda University,www.buc.edu,Anaheim,CA,33.842295,-117.941323,
110097,Biola University,https://www.biola.edu,La Mirada,CA,33.906203,-118.014374,
110194,Brownson Technical School,https://brownson.edu,Anaheim,CA,33.819032,-117.905774,
110219,Bryan University,bryanuniversity.edu,Tempe,AZ,33.437779,-111.944197,
110246,Butte College,www.butte.edu,Oroville,CA,39.649782,-121.644831,
110316,California Institute of Integral Studies,www.ciis.edu,San Francisco,CA,37.774924,-122.416102,
110334,Cabrillo College,www.cabrillo.edu,Aptos,CA,36.989448,-121.924797,
110361,California Baptist University,www.calbaptist.edu,Riverside,CA,33.929321,-117.425619,
110370,California College of the Arts,www.cca.edu,San Francisco,CA,37.767485,-122.399451,
110398,University of California-Hastings College of Law,www.uchastings.edu,San Francisco,CA,37.781137,-122.4157,https://www.universityofcalifornia.edu/press-room/uc-encourages-covid-19-vaccinations-university-communities-while-reviewing-policy
110404,California Institute of Technology,www.caltech.edu,Pasadena,CA,34.137349,-118.125878,
110413,California Lutheran University,www.callutheran.edu/,Thousand Oaks,CA,34.224566,-118.878924,
110422,California Polytechnic State University-San Luis Obispo,calpoly.edu,San Luis Obispo,CA,35.299513,-120.657311,
110468,Alliant International University-San Diego,www.alliant.edu,San Diego,CA,32.897056,-117.094398,
110486,California State University-Bakersfield,www.csub.edu,Bakersfield,CA,35.350005,-119.104711,https://www2.calstate.edu/csu-system/news/Pages/CSU-COVID-Vax-Requirement-FDA-Approval.aspx
110495,California State University-Stanislaus,https://www.csustan.edu,Turlock,CA,37.52577,-120.852511,https://www2.calstate.edu/csu-system/news/Pages/CSU-COVID-Vax-Requirement-FDA-Approval.aspx
110510,California State University-San Bernardino,www.csusb.edu,San Bernardino,CA,34.182622,-117.323801,https://www2.calstate.edu/csu-system/news/Pages/CSU-COVID-Vax-Requirement-FDA-Approval.aspx
110529,California State Polytechnic University-Pomona,www.cpp.edu,Pomona,CA,34.057912,-117.821476,https://www2.calstate.edu/csu-system/news/Pages/CSU-COVID-Vax-Requirement-FDA-Approval.aspx
110538,California State University-Chico,www.csuchico.edu,Chico,CA,39.729712,-121.844859,https://www2.calstate.edu/csu-system/news/Pages/CSU-COVID-Vax-Requirement-FDA-Approval.aspx
110547,California State University-Dominguez Hills,https://www.csudh.edu,Carson,CA,33.864766,-118.255917,https://www2.calstate.edu/csu-system/news/Pages/CSU-COVID-Vax-Requirement-FDA-Approval.aspx
110556,California State University-Fresno,www.fresnostate.edu/,Fresno,CA,36.811154,-119.744569,https://www2.calstate.edu/csu-system/news/Pages/CSU-COVID-Vax-Requirement-FDA-Approval.aspx
110565,California State University-Fullerton,www.fullerton.edu,Fullerton,CA,33.881506,-117.885446,https://www2.calstate.edu/csu-system/news/Pages/CSU-COVID-Vax-Requirement-FDA-Approval.aspx
110574,California State University-East Bay,www.csueastbay.edu,Hayward,CA,37.657694,-122.054135,https://www2.calstate.edu/csu-system/news/Pages/CSU-COVID-Vax-Requirement-FDA-Approval.aspx
110583,California State University-Long Beach,www.csulb.edu,Long Beach,CA,33.782818,-118.11204,https://www2.calstate.edu/csu-system/news/Pages/CSU-COVID-Vax-Requirement-FDA-Approval.aspx
110592,California State University-Los Angeles,www.calstatela.edu,Los Angeles,CA,34.066927,-118.168965,https://www2.calstate.edu/csu-system/news/Pages/CSU-COVID-Vax-Requirement-FDA-Approval.aspx
110608,California State University-Northridge,https://www.csun.edu,Northridge,CA,34.240126,-118.529319,https://www2.calstate.edu/csu-system/news/Pages/CSU-COVID-Vax-Requirement-FDA-Approval.aspx
110617,California State University-Sacramento,www.csus.edu,Sacramento,CA,38.559415,-121.423549,https://www2.calstate.edu/csu-system/news/Pages/CSU-COVID-Vax-Requirement-FDA-Approval.aspx
110635,University of California-Berkeley,www.berkeley.edu,Berkeley,CA,37.871918,-122.260463,https://www.universityofcalifornia.edu/press-room/uc-encourages-covid-19-vaccinations-university-communities-while-reviewing-policy
110644,University of California-Davis,ucdavis.edu,Davis,CA,38.539667,-121.749567,https://www.universityofcalifornia.edu/press-room/uc-encourages-covid-19-vaccinations-university-communities-while-reviewing-policy
110653,University of California-Irvine,www.uci.edu/,Irvine,CA,33.648434,-117.841248,https://www.universityofcalifornia.edu/press-room/uc-encourages-covid-19-vaccinations-university-communities-while-reviewing-policy
110662,University of California-Los Angeles,www.ucla.edu/,Los Angeles,CA,34.068892,-118.443901,https://www.universityofcalifornia.edu/press-room/uc-encourages-covid-19-vaccinations-university-communities-while-reviewing-policy
110671,University of California-Riverside,www.ucr.edu/,Riverside,CA,33.97246,-117.32741,https://www.universityofcalifornia.edu/press-room/uc-encourages-covid-19-vaccinations-university-communities-while-reviewing-policy
110680,University of California-San Diego,www.ucsd.edu,La Jolla,CA,32.877749,-117.235866,https://www.universityofcalifornia.edu/press-room/uc-encourages-covid-19-vaccinations-university-communities-while-reviewing-policy
110699,University of California-San Francisco,ucsf.edu,San Francisco,CA,37.763737,-122.458489,https://www.universityofcalifornia.edu/press-room/uc-encourages-covid-19-vaccinations-university-communities-while-reviewing-policy
110705,University of California-Santa Barbara,www.ucsb.edu,Santa Barbara,CA,34.416297,-119.846426,https://www.universityofcalifornia.edu/press-room/uc-encourages-covid-19-vaccinations-university-communities-while-reviewing-policy
110714,University of California-Santa Cruz,www.ucsc.edu/,Santa Cruz,CA,36.995584,-122.058801,https://www.universityofcalifornia.edu/press-room/uc-encourages-covid-19-vaccinations-university-communities-while-reviewing-policy
110778,Sofia University,www.sofia.edu,Palo Alto,CA,37.430325,-122.10866,
110875,California Beauty School,www.calbeautycollege.edu,Modesto,CA,37.645217,-120.99689,
110918,California Christian College,www.calchristiancollege.edu,Fresno,CA,36.749366,-119.711123,
110936,California Coast University,https://www.calcoast.edu,Santa Ana,CA,33.753135,-117.86524,
111054,California Hair Design Academy,https://chdaschools.com,La Mesa,CA,32.765221,-117.024261,
111081,California Institute of the Arts,www.calarts.edu,Valencia,CA,34.39327,-118.566837,
111188,California State University Maritime Academy,https://www.csum.edu,Vallejo,CA,38.069061,-122.231551,https://www2.calstate.edu/csu-system/news/Pages/CSU-COVID-Vax-Requirement-FDA-Approval.aspx
111391,California Western School of Law,https://www.cwsl.edu,San Diego,CA,32.722192,-117.162416,
111434,Canada College,canadacollege.edu,Redwood City,CA,37.44877,-122.265398,
111461,College of the Canyons,www.canyons.edu,Santa Clarita,CA,34.403993,-118.568698,
111513,Career Academy of Beauty,CAofB.com,Garden Grove,CA,33.781018,-118.031697,
111638,Casa Loma College-Van Nuys,https://www.casalomacollege.edu,Van Nuys,CA,34.192829,-118.457781,
111708,CET-San Diego,https://www.cetweb.edu,San Diego,CA,32.711302,-117.105328,
111717,CET-San Jose,https://cetweb.edu,San Jose,CA,37.322723,-121.88698,
111726,CET-El Centro,https://cetweb.edu,El Centro,CA,32.790908,-115.549079,
111744,CET-Colton,https://cetweb.edu,Colton,CA,34.077381,-117.353488,
111762,CET-Watsonville,https://www.cetweb.edu,Watsonville,CA,36.931833,-121.767991,
111799,CET-Salinas,https://cetweb.edu,Salinas,CA,36.707333,-121.65236,
111887,Cerritos College,www.cerritos.edu,Norwalk,CA,33.886874,-118.097337,
111896,Cerro Coso Community College,cerrocoso.edu,Ridgecrest,CA,35.567525,-117.66767,
111920,Chabot College,www.chabotcollege.edu,Hayward,CA,37.642458,-122.105636,
111939,Chaffey College,www.chaffey.edu,Rancho Cucamonga,CA,34.147663,-117.573932,
111948,Chapman University,https://www.chapman.edu,Orange,CA,33.79302,-117.852518,
111966,Charles R Drew University of Medicine and Science,www.cdrewu.edu,Los Angeles,CA,33.925658,-118.242791,
112075,Concordia University-Irvine,www.cui.edu,Irvine,CA,33.653665,-117.812305,
112084,San Diego Christian College,sdcc.edu,Santee,CA,32.842404,-116.978112,
112127,Church Divinity School of the Pacific,www.cdsp.edu,Berkeley,CA,37.876184,-122.261122,
112172,Citrus College,https://www.citruscollege.edu,Glendora,CA,34.135487,-117.885266,
112181,Citrus Heights Beauty College,chbeautycollege.com,Citrus Heights,CA,38.712951,-121.289529,
112190,City College of San Francisco,www.ccsf.edu,San Francisco,CA,37.725953,-122.451155,
112251,Claremont Graduate University,www.cgu.edu,Claremont,CA,34.103585,-117.713703,
112260,Claremont McKenna College,www.cmc.edu,Claremont,CA,34.102154,-117.711188,https://tsl.news/cmc-mandates-vaccines-for-fall-2021/
112288,Milan Institute-Visalia,www.milaninstitute.edu,Visalia,CA,36.27164,-119.312151,
112367,Clovis Adult Education,clovisadult.cusd.com,Clovis,CA,36.834459,-119.690369,
112385,Coastline Community College,www.coastline.edu,Fountain Valley,CA,33.715634,-117.929143,
112394,Cogswell College,www.cogswell.edu,San Jose,CA,37.414049,-121.94087,
112455,Coba Academy,www.coba.edu,Anaheim,CA,33.841141,-117.943108,
112525,Western University of Health Sciences,www.westernu.edu,Pomona,CA,34.058092,-117.747732,
112561,Columbia College,www.gocolumbia.edu/,Sonora,CA,38.030367,-120.388385,
112570,Columbia College Hollywood,https://www.columbiacollege.edu,Tarzana,CA,34.17972,-118.538793,
112686,Compton College,www.compton.edu,Compton,CA,33.878226,-118.209463,
112826,Contra Costa College,https://www.contracosta.edu,San Pablo,CA,37.969381,-122.337377,
113096,Cosumnes River College,https://www.crc.losrios.edu,Sacramento,CA,38.45295,-121.423108,
113111,Crafton Hills College,www.craftonhills.edu,Yucaipa,CA,34.039178,-117.101173,
113193,Cuesta College,https://www.cuesta.edu,San Luis Obispo,CA,35.331276,-120.742235,
113218,Cuyamaca College,www.cuyamaca.edu,El Cajon,CA,32.744954,-116.943507,
113236,Cypress College,www.cypresscollege.edu,Cypress,CA,33.82833,-118.025143,
113333,De Anza College,www.deanza.edu/,Cupertino,CA,37.320788,-122.045558,
113449,International School of Beauty Inc,https://btyschool.com/,Palm Desert,CA,33.729555,-116.403928,
113537,Dell'Arte International School of Physical Theatre,www.dellarte.com/school,Blue Lake,CA,40.880924,-123.988808,
113573,College of the Desert,www.collegeofthedesert.edu,Palm Desert,CA,33.732108,-116.388271,
113582,Design Institute of San Diego,www.disd.edu,San Diego,CA,32.880926,-117.167374,
113634,Diablo Valley College,https://www.dvc.edu,Pleasant Hill,CA,37.968516,-122.073142,
113698,Dominican University of California,https://www.dominican.edu,San Rafael,CA,37.981279,-122.512051,
113704,Dominican School of Philosophy & Theology,https://www.dspt.edu,Berkeley,CA,37.881099,-122.264612,
113856,East Los Angeles College,www.elac.edu/,Monterey Park,CA,34.040531,-118.148785,
113980,El Camino Community College District,www.elcamino.edu,Torrance,CA,33.885229,-118.329913,
114044,Elegance International,ei.edu/,Hollywood,CA,34.098445,-118.338111,
114114,Emperor's College of Traditional Oriental Medicine,www.emperors.edu,Santa Monica,CA,34.030438,-118.485119,
114123,Empire College,www.empcol.edu,Santa Rosa,CA,38.468052,-122.729337,
114266,Evergreen Valley College,www.evc.edu,San Jose,CA,37.30167,-121.76561,
114354,FIDM-Fashion Institute of Design & Merchandising-Los Angeles,www.fidm.edu,Los Angeles,CA,34.044209,-118.25993,
114390,FIDM-Fashion Institute of Design & Merchandising-San Francisco,WWW.FIDM.EDU,San Francisco,CA,37.786353,-122.406651,
114415,FIDM-Fashion Institute of Design & Merchandising-Orange County,www.FIDM.edu,Irvine,CA,33.691963,-117.852254,
114433,Feather River Community College District,www.frc.edu,Quincy,CA,39.953101,-120.973067,
114460,Federico Beauty Institute,federico.edu,Sacramento,CA,38.64883,-121.497761,
114549,Fielding Graduate University,www.fielding.edu,Santa Barbara,CA,34.42941,-119.717161,
114585,Five Branches University,www.fivebranches.edu,Santa Cruz,CA,36.964348,-121.998245,
114637,Redondo Beach Beauty College,rbbeautycollege.com,Redondo Beach,CA,33.873098,-118.372137,
114716,Foothill College,https://foothill.edu,Los Altos Hills,CA,37.361655,-122.127964,
114734,Franciscan School of Theology,www.fst.edu,Oceanside,CA,33.232416,-117.320066,
114761,Fredrick and Charles Beauty College,www.fandcbeauty.com,Eureka,CA,40.798885,-124.164986,
114789,Fresno City College,www.fresnocitycollege.edu,Fresno,CA,36.768164,-119.796096,
114813,Fresno Pacific University,www.fresno.edu,Fresno,CA,36.726831,-119.735199,
114840,Fuller Theological Seminary,www.fuller.edu,Pasadena,CA,34.14778,-118.140261,
114859,Fullerton College,www.fullcoll.edu,Fullerton,CA,33.875514,-117.918255,
114938,Gavilan College,https://www.gavilan.edu,Gilroy,CA,36.972627,-121.569842,
114947,Gemological Institute of America-Carlsbad,www.gia.edu/gem-education,Carlsbad,CA,33.131313,-117.318765,
115001,Glendale Community College,www.glendale.edu,Glendale,CA,34.16745,-118.227666,
115010,Glendale Career College,www.success.edu,Glendale,CA,34.149771,-118.254719,
115083,Golden Gate University-San Francisco,www.ggu.edu,San Francisco,CA,37.789374,-122.398969,
115126,Golden West College,www.goldenwestcollege.edu,Huntington Beach,CA,33.732531,-118.002568,
115214,Graduate Theological Union,WWW.GTU.EDU,Berkeley,CA,37.87554,-122.261847,
115296,Grossmont College,www.grossmont.edu/,El Cajon,CA,32.815246,-117.006277,
115357,Salon Success Academy-Riverside,www.gotobeautyschool.com,Riverside,CA,33.943149,-117.391024,
115393,Hartnell College,www.hartnell.edu,Salinas,CA,36.675091,-121.666054,
115409,Harvey Mudd College,https://www.hmc.edu,Claremont,CA,34.106515,-117.709837,
115658,Hilltop Beauty School,www.hilltopbeautyschool.com,Daly City,CA,37.705502,-122.461467,
115728,Holy Names University,www.hnu.edu,Oakland,CA,37.802276,-122.187804,
115746,Pacifica Graduate Institute,www.pacifica.edu,Carpinteria,CA,34.420881,-119.580414,
115755,Humboldt State University,www.humboldt.edu,Arcata,CA,40.877481,-124.078293,
115773,Humphreys University-Stockton and Modesto Campuses,www.humphreys.edu,Stockton,CA,38.011489,-121.316918,
115861,Imperial Valley College,www.imperial.edu,Imperial,CA,32.827209,-115.503563,
115931,Institute for Business and Technology,https://ibt.edu/,Santa Clara,CA,37.368642,-121.969541,
116226,Interior Designers Institute,https://www.idi.edu/,Newport Beach,CA,33.641393,-117.865722,
116350,Toni & Guy Hairdressing Academy-Santa Monica,www.toniguy.edu/,Santa Monica,CA,34.017276,-118.494755,
116439,Irvine Valley College,www.ivc.edu,Irvine,CA,33.675381,-117.777539,
116563,Bellus Academy-El Cajon,www.bellusacademy.edu,El Cajon,CA,32.794072,-116.94627,
116712,John F. Kennedy University,https://www.jfku.edu,Pleasant Hill,CA,37.956616,-122.054761,
116846,American Jewish University,www.aju.edu,Los Angeles,CA,34.128153,-118.471706,
117052,Reedley College,www.reedleycollege.edu,Reedley,CA,36.605428,-119.458555,
117104,Life Pacific University,https://www.lifepacific.edu,San Dimas,CA,34.098705,-117.829388,
117140,University of La Verne,www.laverne.edu/,La Verne,CA,34.100855,-117.773262,
117168,Laguna College of Art and Design,www.lcad.edu,Laguna Beach,CA,33.561448,-117.772564,
117195,Lake Tahoe Community College,www.ltcc.edu,South Lake Tahoe,CA,38.926797,-119.972574,
117238,Lancaster Beauty School,lancasterbeautyschool.com,Lancaster,CA,34.694914,-118.147547,
117247,Laney College,laney.edu/,Oakland,CA,37.797257,-122.26283,
117274,Lassen Community College,www.lassencollege.edu/,Susanville,CA,40.432053,-120.633271,
117520,Life Chiropractic College West,www.lifewest.edu,Hayward,CA,37.638099,-122.117619,
117557,Lincoln University,www.lincolnuca.edu,Oakland,CA,37.804788,-122.269745,
117575,Southern California Seminary,www.socalsem.edu,El Cajon,CA,32.799614,-116.905461,
117627,La Sierra University,https://lasierra.edu,Riverside,CA,33.910704,-117.500054,
117636,Loma Linda University,www.llu.edu/index.html,Loma Linda,CA,34.051241,-117.260605,
117645,Long Beach City College,www.lbcc.edu,Long Beach,CA,33.833593,-118.135633,
117672,Southern California University of Health Sciences,www.scuhs.edu,Whittier,CA,33.922966,-117.983401,
117690,Los Angeles Harbor College,www.lahc.edu,Wilmington,CA,33.784201,-118.28186,
117706,Los Angeles Pierce College,www.piercecollege.edu,Woodland Hills,CA,34.183949,-118.575071,
117715,Los Angeles Southwest College,www.lasc.edu,Los Angeles,CA,33.929586,-118.304674,
117724,Los Angeles Trade Technical College,www.lattc.edu,Los Angeles,CA,34.031907,-118.269447,
117733,Los Angeles Valley College,www.lavc.edu,Valley Glen,CA,34.175165,-118.421734,
117751,The Master's University and Seminary,www.masters.edu,Santa Clarita,CA,34.381755,-118.518193,
117788,Los Angeles City College,www.lacitycollege.edu/,Los Angeles,CA,34.087301,-118.292169,
117803,Los Angeles County College of Nursing and Allied Health,dhs.lacounty.gov/wps/portal/dhs/conah/,Los Angeles,CA,34.062647,-118.211852,
117867,Los Angeles Mission College,www.lamission.edu,Sylmar,CA,34.314668,-118.4195,
117894,Los Medanos College,https://www.losmedanos.edu/,Pittsburg,CA,38.006474,-121.860967,
117946,Loyola Marymount University,https://www.lmu.edu,Los Angeles,CA,33.97085,-118.415744,
117955,Lu Ross Academy,www.lurossacademy.com/,Ventura,CA,34.278034,-119.293952,
118134,Lyle's College of Beauty,lylescolleges.com,Bakersfield,CA,35.386539,-119.02387,
118143,Lyle's College of  Beauty,lylescolleges.com,Fresno,CA,36.836265,-119.774167,
118161,Lytles Redwood Empire Beauty College Inc,www.lytlesrebc.edu/,Santa Rosa,CA,38.508385,-122.75777,
118189,MTI Business College Inc,www.mtistockton.com,Stockton,CA,38.007885,-121.308445,
118198,MTI College,www.mticollege.edu,Sacramento,CA,38.661377,-121.342568,
118347,College of Marin,www.marin.edu,Kentfield,CA,37.954897,-122.549149,
118541,Marymount California University,www.marymountcalifornia.edu/,Rancho Palos Verdes,CA,33.734887,-118.333371,
118684,Mendocino College,www.mendocino.edu,Ukiah,CA,39.188989,-123.228809,
118693,Menlo College,www.menlo.edu,Atherton,CA,37.453475,-122.190797,https://www.almanacnews.com/news/2021/04/23/menlo-college-to-require-students-to-be-vaccinated-before-fall-return-to-campus
118718,Merced College,www.mccd.edu,Merced,CA,37.3353,-120.476464,
118772,Merritt College,www.merritt.edu,Oakland,CA,37.789088,-122.167335,
118888,Mills College,https://www.mills.edu,Oakland,CA,37.781425,-122.182294,
118912,MiraCosta College,www.miracosta.edu,Oceanside,CA,33.190483,-117.302606,
118930,Mission College,www.missioncollege.edu/,Santa Clara,CA,37.391935,-121.980783,
118958,Modern Beauty Academy,www.modernbeautyacademy.org,Oxnard,CA,34.195384,-119.181423,
118976,Modesto Junior College,www.mjc.edu,Modesto,CA,37.651056,-121.009792,
118994,Moler Barber College,moler.org,Oakland,CA,37.827075,-122.265352,
119058,Middlebury Institute of International Studies at Monterey,www.middlebury.edu/institute/,Monterey,CA,36.599736,-121.897325,
119067,Monterey Peninsula College,www.mpc.edu,Monterey,CA,36.590558,-121.884931,
119137,Moorpark College,www.moorparkcollege.edu/index.shtml,Moorpark,CA,34.301146,-118.834528,
119164,Mt San Antonio College,www.mtsac.edu,Walnut,CA,34.047764,-117.846629,
119173,Mount Saint Mary's University,https://www.msmu.edu,Los Angeles,CA,34.085315,-118.482879,
119216,Mt San Jacinto Community College District,www.msjc.edu,San Jacinto,CA,33.806748,-116.971169,
119270,Musicians Institute,www.mi.edu,Hollywood,CA,34.101265,-118.337582,
119331,Napa Valley College,www.napavalley.edu,Napa,CA,38.274081,-122.274381,
119553,National Holistic Institute,www.nhi.edu,Emeryville,CA,37.841898,-122.287672,
119605,National University,www.nu.edu,La Jolla,CA,32.909894,-117.243026,
119678,Naval Postgraduate School,https://www.nps.edu,Monterey,CA,36.597159,-121.874248,
119775,Newschool of Architecture and Design,www.newschoolarch.edu,San Diego,CA,32.71331,-117.153305,
119845,Newberry School of Beauty,www.newberryschoolofbeauty.net,Granada Hills,CA,34.256683,-118.499693,
119951,North Adrian's College of Beauty Inc,www.adrians.edu,Modesto,CA,37.677778,-120.992753,
120069,North-West College-Pomona,www.north-westcollege.edu,Pomona,CA,34.062043,-117.751227,
120078,North-West College-West Covina,www.north-westcollege.edu,West Covina,CA,34.072071,-117.949583,
120087,North-West College-Van Nuys,www.north-westcollege.edu,Van Nuys,CA,34.189497,-118.450184,
120184,Notre Dame de Namur University,www.ndnu.edu,Belmont,CA,37.517111,-122.284794,
120254,Occidental College,https://www.oxy.edu,Los Angeles,CA,34.127124,-118.210908,
120290,Ohlone College,www.ohlone.edu,Fremont,CA,37.52773,-121.916339,
120342,Orange Coast College,www.orangecoastcollege.edu/,Costa Mesa,CA,33.66927,-117.909086,
120403,Otis College of Art and Design,www.otis.edu,Los Angeles,CA,33.956607,-118.416615,
120421,Oxnard College,www.oxnardcollege.edu,Oxnard,CA,34.166104,-119.157604,
120537,Hope International University,www.hiu.edu,Fullerton,CA,33.87616,-117.88573,
120661,Concorde Career College-San Diego,https://www.concorde.edu/campus/san-diego-california,San Diego,CA,32.702814,-117.102845,
120698,Palo Alto University,www.paloaltou.edu,Palo Alto,CA,37.382216,-122.187437,
120768,Pacific Oaks College,www.pacificoaks.edu,Pasadena,CA,34.153382,-118.151323,
120795,Pacific School of Religion,www.psr.edu,Berkeley,CA,37.87669,-122.263155,
120838,Pacific States University,www.psuca.edu,Los Angeles,CA,34.061315,-118.298408,
120865,Pacific Union College,https://www.puc.edu,Angwin,CA,38.570585,-122.440308,
120883,University of the Pacific,www.pacific.edu,Stockton,CA,37.981424,-121.312301,
120953,Palo Verde College,www.paloverde.edu,Blythe,CA,33.661538,-114.651698,
120971,Palomar College,www2.palomar.edu/,San Marcos,CA,33.149483,-117.183978,
121044,Pasadena City College,pasadena.edu/,Pasadena,CA,34.144552,-118.118196,
121150,Pepperdine University,www.pepperdine.edu/,Malibu,CA,34.037786,-118.707077,
121257,Pitzer College,https://www.pitzer.edu,Claremont,CA,34.104107,-117.706675,https://www.pitzer.edu/emergency/2021/04/13/covid-19-vaccine-update-for-students/
121275,Platt College-San Diego,www.platt.edu,San Diego,CA,32.76373,-117.063483,
121309,Point Loma Nazarene University,www.pointloma.edu,San Diego,CA,32.718391,-117.250265,
121345,Pomona College,www.pomona.edu,Claremont,CA,34.099027,-117.714556,https://www.pomona.edu/coronavirus/updates/posts/summer-planning-vaccines-and-pandemic-related-assistance-students-41421
121363,Porterville College,www.portervillecollege.edu,Porterville,CA,36.049256,-119.014368,
121433,Professional Institute of Beauty,www.pib.edu,El Monte,CA,34.075561,-118.039028,
121619,Santa Ana College,www.sac.edu,Santa Ana,CA,33.759309,-117.887558,
121628,Pardee RAND Graduate School,www.prgs.edu,Santa Monica,CA,34.00973,-118.490655,
121637,Shasta School of Cosmetology,www.shastaschoolofcosmetology.com,Redding,CA,40.597114,-122.387248,
121691,University of Redlands,www.redlands.edu,Redlands,CA,34.064218,-117.163218,
121707,College of the Redwoods,www.redwoods.edu,Eureka,CA,40.698427,-124.195293,
121859,Salon Success Academy-Upland,www.gotobeautyschool.com,Upland,CA,34.108247,-117.631783,
121868,Salon Success Academy-Corona,www.gotobeautyschool.com,Corona,CA,33.847649,-117.535638,
121886,Rio Hondo College,www.riohondo.edu,Whittier,CA,34.019821,-118.033506,
121901,Riverside City College,www.rcc.edu/riverside/,Riverside,CA,33.970918,-117.384323,
121992,Rosemead Beauty School,rosemeadbeauty.com/home/,Rosemead,CA,34.080756,-118.082793,
122117,Dongguk University-Los Angeles,www.dula.edu,Los Angeles,CA,34.06597,-118.289523,
122180,Sacramento City College,https://www.scc.losrios.edu/,Sacramento,CA,38.541096,-121.491139,
122205,Saddleback College,www.saddleback.edu,Mission Viejo,CA,33.553346,-117.665584,
122296,Samuel Merritt University,www.samuelmerritt.edu,Oakland,CA,37.82029,-122.266331,https://www.samuelmerritt.edu/coronavirus
122339,San Diego City College,www.sdcity.edu/,San Diego,CA,32.717403,-117.152733,
122375,San Diego Mesa College,www.sdmesa.edu/,San Diego,CA,32.803825,-117.169165,
122384,San Diego Miramar College,www.sdmiramar.edu,San Diego,CA,32.909757,-117.120261,
122409,San Diego State University,www.sdsu.edu,San Diego,CA,32.77525,-117.071228,
122436,University of San Diego,www.sandiego.edu,San Diego,CA,32.770816,-117.192073,https://www.sandiego.edu/onward/documents/emails/2021/mandatory-vaccinations-2021-04-19.html
122454,San Francisco Art Institute,www.sfai.edu,San Francisco,CA,37.803575,-122.417,
122506,San Francisco Conservatory of Music,https://sfcm.edu,San Francisco,CA,37.775543,-122.420292,
122597,San Francisco State University,www.sfsu.edu,San Francisco,CA,37.721224,-122.476799,
122603,San Francisco Theological Seminary,www.sfts.edu,San Anselmo,CA,37.969952,-122.565407,
122612,University of San Francisco,https://www.usfca.edu,San Francisco,CA,37.776618,-122.450477,
122649,San Joaquin College of Law,www.sjcl.edu,Clovis,CA,36.82448,-119.697657,
122658,San Joaquin Delta College,www.deltacollege.edu/,Stockton,CA,37.995129,-121.318266,
122685,San Joaquin Valley College-Visalia,www.sjvc.edu,Visalia,CA,36.328049,-119.384981,
122728,William Jessup University,WWW.JESSUP.EDU,Rocklin,CA,38.819728,-121.292312,
122746,San Jose City College,www.sjcc.edu,San Jose,CA,37.315827,-121.926185,
122755,San Jose State University,www.sjsu.edu,San Jose,CA,37.336569,-121.880621,
122791,College of San Mateo,www.collegeofsanmateo.edu,San Mateo,CA,37.535698,-122.334801,
122834,Santa Barbara Business College-Bakersfield,sbbcollege.edu,Bakersfield,CA,35.359544,-119.061264,
122852,Santa Barbara Business College-Santa Maria,sbbcollege.edu,Santa Maria,CA,34.937806,-120.433296,
122889,Santa Barbara City College,www.sbcc.edu,Santa Barbara,CA,34.406788,-119.698045,
122931,Santa Clara University,www.scu.edu,Santa Clara,CA,37.348362,-121.93784,
122977,Santa Monica College,www.smc.edu,Santa Monica,CA,34.017022,-118.469765,
123013,Santa Rosa Junior College,www.santarosa.edu,Santa Rosa,CA,38.45709,-122.718974,
123095,Saybrook University,www.saybrook.edu,Pasadena,CA,34.153103,-118.152155,
123165,Scripps College,www.scrippscollege.edu,Claremont,CA,34.104147,-117.711294,
123217,College of the Sequoias,www.cos.edu,Visalia,CA,36.323877,-119.315182,
123280,Shasta Bible College and Graduate School,www.shasta.edu,Redding,CA,40.566034,-122.314419,
123299,Shasta College,www.shastacollege.edu,Redding,CA,40.625731,-122.317982,
123341,Sierra College,https://www.sierracollege.edu,Rocklin,CA,38.790773,-121.211688,
123350,Sierra College of Beauty,sierrabeautycollege.net,Merced,CA,37.306975,-120.495874,
123448,Trinity Law School,tls.edu,Santa Ana,CA,33.766071,-117.852059,
123457,Simpson University,www.simpsonu.edu,Redding,CA,40.61334,-122.332981,
123484,College of the Siskiyous,www.siskiyous.edu,Weed,CA,41.413005,-122.38909,
123493,Charles A Jones Career and Education Center,www.caj.scusd.edu,Sacramento,CA,38.516233,-121.440796,
123509,Skyline College,skylinecollege.edu,San Bruno,CA,37.63042,-122.467335,
123527,San Bernardino Valley College,www.valleycollege.edu,San Bernardino,CA,34.086353,-117.313248,
123554,Saint Mary's College of California,https://www.stmarys-ca.edu,Moraga,CA,37.840731,-122.109031,
123563,Solano Community College,www.solano.edu,Fairfield,CA,38.235881,-122.122368,
123572,Sonoma State University,www.sonoma.edu,Rohnert Park,CA,38.340274,-122.677066,
123633,South Baylo University,www.southbaylo.edu,Anaheim,CA,33.848216,-117.958727,
123642,South Coast College,www.SOUTHCOASTCOLLEGE.EDU,Orange,CA,33.78818,-117.874031,
123651,Vanguard University of Southern California,https://www.vanguard.edu,Costa Mesa,CA,33.662686,-117.900911,
123679,Concorde Career College-Garden Grove,https://www.concorde.edu/campus/garden-grove-california,Garden Grove,CA,33.774741,-117.938395,
123800,Southwestern College,https://www.swccd.edu,Chula Vista,CA,32.640281,-116.996803,http://news.swccd.edu/2021/04/southwestern-college-to-expand-in-person-classes-fall-2021-require-vaccinations/?utm_source=rss&utm_medium=rss&utm_campaign=southwestern-college-to-expand-in-person-classes-fall-2021-require-vaccinations
123855,St John's Seminary,www.stjohnsem.edu,Camarillo,CA,34.243921,-119.001867,
123916,Starr King School for the Ministry,www.sksm.edu,Berkeley,CA,37.876939,-122.261778,
123943,Marshall B Ketchum University,www.ketchum.edu,Fullerton,CA,33.889348,-117.886229,
123952,Southern California Institute of Architecture,www.sciarc.edu,Los Angeles,CA,34.044215,-118.232799,
123961,University of Southern California,www.usc.edu/,Los Angeles,CA,34.021281,-118.284169,
123970,Southwestern Law School,www.swlaw.edu,Los Angeles,CA,34.061558,-118.288375,
124113,Taft College,www.taftcollege.edu,Taft,CA,35.149343,-119.459751,
124283,Claremont School of Theology,www.cst.edu,Claremont,CA,34.107602,-117.715256,
124292,Thomas Aquinas College,https://thomasaquinas.edu,Santa Paula,CA,34.429009,-119.087141,
124487,Epic Bible College,EPIC.edu,Sacramento,CA,38.645152,-121.362642,
124681,United Education Institute-Huntington Park Campus,https://www.uei.edu/,Huntington Park,CA,33.986057,-118.226206,
124706,Concorde Career College-San Bernardino,https://www.concorde.edu/campus/san-bernardino-california,San Bernardino,CA,34.066823,-117.283995,
124937,Concorde Career College-North Hollywood,https://www.concorde.edu/campus/north-hollywood-california,North Hollywood,CA,34.186407,-118.403627,
125028,Ventura College,www.venturacollege.edu/,Ventura,CA,34.277393,-119.230604,
125037,The Santa Barbara and Ventura Colleges of Law at Ventura,www.collegesoflaw.edu,Ventura,CA,34.25747,-119.232988,
125091,Victor Valley College,www.vvc.edu,Victorville,CA,34.472231,-117.261456,
125170,Berkeley City College,www.berkeleycitycollege.edu/wp/,Berkeley,CA,37.869769,-122.269877,
125231,Walden University,www.waldenu.edu,Minneapolis,MN,44.98125,-93.265738,
125310,Waynes College of Beauty,www.waynescollegeofbeauty.com,Salinas,CA,36.700635,-121.652672,
125462,West Hills College-Coalinga,https://www.westhillscollege.com/coalinga/,Coalinga,CA,36.147891,-120.356747,
125471,West Los Angeles College,www.wlac.edu,Culver City,CA,34.004512,-118.386664,
125499,West Valley College,www.westvalley.edu,Saratoga,CA,37.26398,-122.008324,
125532,Carrington College-Sacramento,https://carrington.edu/,Sacramento,CA,38.556151,-121.371331,
125718,Westminster Theological Seminary in California,www.wscal.edu,Escondido,CA,33.121447,-117.046371,
125727,Westmont College,www.westmont.edu,Santa Barbara,CA,34.450151,-119.662517,
125763,Whittier College,www.whittier.edu,Whittier,CA,33.978773,-118.032299,
125897,Woodbury University,https://woodbury.edu,Burbank,CA,34.208011,-118.341147,
126012,The Wright Institute,www.wi.edu,Berkeley,CA,37.868221,-122.253168,
126049,Thomas Jefferson School of Law,www.tjsl.edu,San Diego,CA,32.717595,-117.157862,
126076,Yeshiva Ohr Elchonon Chabad West Coast Talmudical Seminary,www.yoec.edu/,Los Angeles,CA,34.085465,-118.346613,
126119,Yuba College,https://yc.yccd.edu,Marysville,CA,39.126536,-121.53964,
126164,The Salon Professional Academy-Grand Junction,GrandJunctionBeautySchool.com,Grand Junction,CO,39.078114,-108.56521,
126182,Adams State University,www.adams.edu,Alamosa,CO,37.473636,-105.879642,
126207,Aims Community College,www.aims.edu,Greeley,CO,40.409559,-104.763415,
126289,Arapahoe Community College,www.arapahoe.edu,Littleton,CO,39.607505,-105.018631,
126359,Bel-Rea Institute of Animal Technology,www.bel-rea.com,Denver,CO,39.686194,-104.876207,
126562,University of Colorado Denver/Anschutz Medical Campus,www.ucdenver.edu/,Denver,CO,39.745149,-104.837722,https://president.cu.edu/statements/cu-requires-vaccine-fall-semester-2021
126580,University of Colorado Colorado Springs,https://www.uccs.edu,Colorado Springs,CO,38.892735,-104.800296,https://president.cu.edu/statements/cu-requires-vaccine-fall-semester-2021
126605,Spartan College of Aeronautics and Technology,www.spartan.edu,Broomfield,CO,39.914822,-105.119096,
126614,University of Colorado Boulder,www.colorado.edu,Boulder,CO,40.008781,-105.270823,https://president.cu.edu/statements/cu-requires-vaccine-fall-semester-2021
126669,Colorado Christian University,https://WWW.CCU.EDU,Lakewood,CO,39.71388,-105.09456,
126678,Colorado College,www.coloradocollege.edu,Colorado Springs,CO,38.84886,-104.822697,
126687,Concorde Career College-Aurora,https://www.concorde.edu/campus/aurora-colorado,Aurora,CO,39.718699,-104.867089,
126711,Colorado Mountain College,coloradomtn.edu/,Glenwood Springs,CO,39.54636,-107.324441,
126748,Colorado Northwestern Community College,www.cncc.edu,Rangely,CO,40.081112,-108.790048,
126775,Colorado School of Mines,www.mines.edu,Golden,CO,39.751443,-105.223364,
126784,Colorado School of Trades,https://schooloftrades.edu/about,Lakewood,CO,39.74181,-105.104174,
126818,Colorado State University-Fort Collins,colostate.edu,Fort Collins,CO,40.574805,-105.080732,https://source.colostate.edu/update-on-csu-system-covid-vaccine-requirement-for-fall-2021/
126827,Colorado Technical University-Colorado Springs,www.coloradotech.edu/Colorado-Springs,Colorado Springs,CO,38.894265,-104.833928,
126863,Community College of Aurora,https://www.ccaurora.edu,Aurora,CO,39.71788,-104.802673,
126872,CollegeAmerica-Denver,www.collegeamerica.edu,Denver,CO,39.691571,-104.941168,
126915,Technical College of the Rockies,www.tcr.edu/,Delta,CO,38.702524,-108.031072,
126942,Community College of Denver,www.ccd.edu,Denver,CO,39.741413,-105.001044,
126951,Lincoln College of Technology-Denver,www.lincolntech.edu/campus/denver-co,Denver,CO,39.77651,-104.856171,
126979,Denver Seminary,www.denverseminary.edu,Littleton,CO,39.600595,-105.022363,
127060,University of Denver,www.du.edu,Denver,CO,39.678005,-104.963259,https://www.du.edu/news/covid-19-vaccine-required-students-fall-2021-term
127158,Emily Griffith Technical College,www.emilygriffith.edu,Denver,CO,39.74575,-104.985751,
127185,Fort Lewis College,fortlewis.edu/,Durango,CO,37.275939,-107.867422,https://www.fortlewis.edu/life-at-flc/health-safety/coronavirus-covid-19/covid-19-updates
127200,Front Range Community College,www.frontrange.edu,Westminster,CO,39.901452,-105.038068,
127273,Iliff School of Theology,www.iliff.edu,Denver,CO,39.675927,-104.960657,
127316,International Salon and Spa Academy,https://www.csbeautyschools.com/,Colorado Springs,CO,38.913621,-104.786252,
127389,Lamar Community College,https://www.lamarcc.edu,Lamar,CO,38.068886,-102.616144,
127556,Colorado Mesa University,www.coloradomesa.edu,Grand Junction,CO,39.080643,-108.553275,
127565,Metropolitan State University of Denver,www.msudenver.edu/,Denver,CO,39.744202,-105.00504,https://www.msudenver.edu/president/msu-denver-to-require-covid-19-vaccinations-for-fall-042821/
127617,Morgan Community College,https://www.morgancc.edu,Fort  Morgan,CO,40.258792,-103.771822,
127653,Naropa University,www.naropa.edu,Boulder,CO,40.014235,-105.266987,
127714,Nazarene Bible College,www.nbc.edu,Colorado Springs,CO,38.944824,-104.803251,
127732,Northeastern Junior College,www.njc.edu,Sterling,CO,40.637215,-103.197329,
127741,University of Northern Colorado,https://www.unco.edu,Greeley,CO,40.410855,-104.692777,https://www.unco.edu/spring-operations/resources/vaccination.aspx
127778,Otero Junior College,WWW.OJC.EDU,La Junta,CO,37.969984,-103.544874,
127787,Altierus Career College-Thornton,https://www.altierus.org/campus/thornton,Thornton,CO,39.86156,-104.985441,
127820,Pikes Peak Community College,www.ppcc.edu,Colorado Springs,CO,38.764287,-104.787261,
127884,Pueblo Community College,www.pueblocc.edu,Pueblo,CO,38.262124,-104.636258,
127909,Red Rocks Community College,www.rrcc.edu,Lakewood,CO,39.720277,-105.150094,
127918,Regis University,www.regis.edu/,Denver,CO,39.788175,-105.030756,
127945,Rocky Mountain College of Art and Design,www.rmcad.edu,Lakewood,CO,39.74332,-105.069911,
127954,Montessori Education Center of the Rockies,www.mecr.edu,Boulder,CO,40.019673,-105.241331,
128106,Colorado State University-Pueblo,https://www.csupueblo.edu,Pueblo,CO,38.30859,-104.579033,https://source.colostate.edu/update-on-csu-system-covid-vaccine-requirement-for-fall-2021/
128151,Pickens Technical College,www.pickenstech.org,Aurora,CO,39.723705,-104.789683,
128179,Intellitec College-Colorado Springs,intellitec.edu,Colorado Springs,CO,38.832183,-104.78721,
128188,Intellitec College-Grand Junction,intellitec.edu/,Grand Junction,CO,39.116346,-108.53062,
128258,Trinidad State Junior College,www.trinidadstate.edu/,Trinidad,CO,37.172059,-104.513451,
128328,United States Air Force Academy,www.usafa.edu,USAF Academy,CO,39.010957,-104.891358,
128337,Empire Beauty School-Thornton,www.empire.edu,Thornton,CO,39.915253,-104.94357,
128391,Western Colorado University,www.western.edu,Gunnison,CO,38.549936,-106.919132,
128498,Albertus Magnus College,https://www.albertus.edu,New Haven,CT,41.332519,-72.923848,
128577,Asnuntuck Community College,www.Asnuntuck.edu,Enfield,CT,41.998409,-72.570177,
128586,Bais Binyomin Academy,https://baisbinyominacademy.com,Monsey,NY,41.123013,-74.078802,
128674,Branford Hall Career Institute-Branford Campus,www.schooliya.com/peg/Branford/index.html,Branford,CT,41.278557,-72.848201,
128744,University of Bridgeport,www.bridgeport.edu,Bridgeport,CT,41.164741,-73.190166,
128771,Central Connecticut State University,www2.ccsu.edu/,New Britain,CT,41.692502,-72.765991,
128780,Charter Oak State College,https://www.charteroak.edu,New Britain,CT,41.688246,-72.767972,
128896,Cortiva Institute-Cromwell,www.cortiva.edu/,Cromwell,CT,41.604041,-72.678562,
128902,Connecticut College,www.conncoll.edu,New London,CT,41.379833,-72.107321,
129002,Porter and Chester Institute of Hamden,www.porterchester.edu,Hamden,CT,41.346568,-72.931908,
129020,University of Connecticut,uconn.edu/,Storrs,CT,41.809098,-72.249948,
129154,Goodwin College,www.goodwin.edu,East Hartford,CT,41.742977,-72.64032,
129181,Lincoln Technical Institute-East Windsor,www.lincolntech.edu/campus/east-windsor-ct,East Windsor,CT,41.924248,-72.596915,
129215,Eastern Connecticut State University,www.easternct.edu/,Willimantic,CT,41.721673,-72.218753,
129242,Fairfield University,fairfield.edu,Fairfield,CT,41.157673,-73.255903,
129349,Paul Mitchell the School-North Haven,paulmitchell.edu/northhaven,North Haven,CT,41.394495,-72.85745,
129367,Capital Community College,www.ccc.commnet.edu,Hartford,CT,41.768397,-72.672734,
129428,Rensselaer at Hartford,ewp.rpi.edu/index.html,Hartford,CT,41.773462,-72.673916,
129482,American Institute-West Hartford,americaninstitute.com,West Hartford,CT,41.727016,-72.725762,
129491,Hartford Seminary,www.hartsem.edu,Hartford,CT,41.769861,-72.707766,
129525,University of Hartford,www.hartford.edu,West Hartford,CT,41.798591,-72.715213,
129534,Holy Apostles College and Seminary,www.holyapostles.edu,Cromwell,CT,41.60682,-72.647853,
129543,Housatonic Community College,www.hcc.commnet.edu,Bridgeport,CT,41.175228,-73.191003,
129695,Manchester Community College,www.manchestercc.edu/,Manchester,CT,41.761625,-72.561939,
129729,Naugatuck Valley Community College,https://nv.edu,Waterbury,CT,41.549749,-73.072963,
129756,Middlesex Community College,www.mxcc.edu,Middletown,CT,41.539516,-72.611838,
129774,Mitchell College,www.mitchell.edu,New London,CT,41.328013,-72.09523,
129808,Three Rivers Community College,www.threerivers.edu,Norwich,CT,41.509945,-72.103039,
129923,Lincoln Technical Institute-New Britain,www.lincolntech.edu/campus/new-britain-ct,New Britain,CT,41.659236,-72.754498,
129932,New England Tractor Trailer Training School of Connecticut,WWW.NETTTS.COM,Somers,CT,41.979699,-72.450218,
129941,University of New Haven,www.newhaven.edu,West Haven,CT,41.291314,-72.961472,
130004,Norwalk Community College,https://norwalk.edu,Norwalk,CT,41.102574,-73.450965,
130040,Northwestern Connecticut Community College,www.nwcc.commnet.edu,Winsted,CT,41.920668,-73.058734,
130110,Paier College of Art Inc,www.paiercollegeofart.edu,Hamden,CT,41.347714,-72.935048,
130174,Porter and Chester Institute of Stratford,www.porterchester.edu,Stratford,CT,41.169646,-73.149023,
130183,Post University,www.post.edu/,Waterbury,CT,41.535549,-73.081497,
130217,Quinebaug Valley Community College,qvcc.edu,Danielson,CT,41.82623,-71.889673,
130226,Quinnipiac University,www.qu.edu,Hamden,CT,41.418915,-72.894117,
130253,Sacred Heart University,https://www.sacredheart.edu,Fairfield,CT,41.220893,-73.243332,
130314,University of Saint Joseph,https://www.usj.edu,West Hartford,CT,41.781041,-72.72965,
130396,Gateway Community College,www.gatewayct.edu/,New Haven,CT,41.303785,-72.927682,
130493,Southern Connecticut State University,www.southernct.edu,New Haven,CT,41.333225,-72.947897,
130509,Stone Academy-West Haven,www.stoneacademy.com,West Haven,CT,41.267503,-72.976966,
130590,Trinity College,www.trincoll.edu,Hartford,CT,41.747451,-72.690882,
130606,Tunxis Community College,www.tunxis.edu,Farmington,CT,41.705498,-72.87754,
130624,United States Coast Guard Academy,https://www.uscga.edu,New London,CT,41.375823,-72.101583,
130697,Wesleyan University,www.wesleyan.edu,Middletown,CT,41.554665,-72.657146,https://newsletter.blogs.wesleyan.edu/2021/04/16/wesleyan-to-require-students-to-be-vaccinated-for-the-fall-2021-semester/
130776,Western Connecticut State University,www.wcsu.edu,Danbury,CT,41.400365,-73.444264,
130794,Yale University,https://www.yale.edu,New Haven,CT,41.311158,-72.926688,https://yaledailynews.com/blog/2021/04/19/yale-to-require-covid-vaccines-for-students-this-fall-considering-mandate-for-faculty-staff/
130837,Margaret H Rollins School of Nursing at Beebe Medical Center,www.beebehealthcare.org/school-nursing,Lewes,DE,38.771565,-75.142864,
130873,Dawn Career Institute LLC,https://www.dawncareerinstitute.edu,Newark,DE,39.668605,-75.677768,
130907,Delaware Technical Community College-Terry,https://www.dtcc.edu,Dover,DE,39.198371,-75.56012,
130934,Delaware State University,www.desu.edu,Dover,DE,39.187173,-75.54053,
130943,University of Delaware,www.udel.edu/,Newark,DE,39.679577,-75.752822,
130989,Goldey-Beacom College,www.gbc.edu,Wilmington,DE,39.741501,-75.689624,
131061,Schilling-Douglas School of Hair Design LLC,schillingdouglas.edu/,Newark,DE,39.711442,-75.74178,
131098,Wesley College,www.wesley.edu,Dover,DE,39.163182,-75.527716,
131113,Wilmington University,www.wilmu.edu,New Castle,DE,39.682299,-75.586998,
131159,American University,WWW.AMERICAN.EDU,Washington,DC,38.936005,-77.088875,https://www.american.edu/ocl/healthcenter/covid-19-vaccine-faq.cfm
131283,The Catholic University of America,https://www.catholic.edu,Washington,DC,38.933651,-76.997909,
131399,University of the District of Columbia,www.udc.edu,Washington,DC,38.943819,-77.066247,
131405,Pontifical Faculty of the Immaculate Conception at the Dominican House of Studies,www.dhs.edu/,Washington,DC,38.931652,-76.998724,
131450,Gallaudet University,www.gallaudet.edu,Washington,DC,38.907371,-76.993675,
131469,George Washington University,https://www.gwu.edu,Washington,DC,38.89923,-77.048363,https://coronavirus.gwu.edu/vaccine
131496,Georgetown University,www.georgetown.edu,Washington,DC,38.908809,-77.073463,https://president.georgetown.edu/vaccine-update-for-students-april-2021/
131520,Howard University,www.howard.edu,Washington,DC,38.922392,-77.018966,
131803,Strayer University-District of Columbia,www.strayer.edu/campus-locations/district-columbia/washington,Washington,DC,38.904881,-77.034133,
131830,National Conservatory of Dramatic Arts,www.theconservatory.org,Washington,DC,38.910024,-77.065095,
131876,Trinity Washington University,www.trinitydc.edu,Washington,DC,38.927398,-77.004261,https://discover.trinitydc.edu/news/important-covid-19-vaccine-update/
131973,Wesley Theological Seminary,www.wesleyseminary.edu/,Washington,DC,38.939606,-77.08996,
132374,Atlantic Technical College,www.atlantictechnicalcollege.edu,Coconut Creek,FL,26.24278,-80.192271,
132408,The Baptist College of Florida,www.baptistcollege.edu,Graceville,FL,30.962708,-85.503931,
132471,Barry University,www.barry.edu,Miami,FL,25.878908,-80.198925,
132602,Bethune-Cookman University,www.cookman.edu,Daytona Beach,FL,29.207195,-81.032946,
132657,Lynn University,www.lynn.edu,Boca Raton,FL,26.385985,-80.122806,
132675,North Florida Technical College,www.nftc.edu,Starke,FL,29.952308,-82.117224,
132693,Eastern Florida State College,www.easternflorida.edu,Cocoa,FL,28.38361,-80.756474,
132709,Broward College,www.broward.edu,Fort Lauderdale,FL,26.119422,-80.14183,
132842,Carlos Albizu University-Miami,www.albizu.edu,Miami,FL,25.794178,-80.356315,
132851,College of Central Florida,www.cf.edu,Ocala,FL,29.166079,-82.175692,
132879,Johnson University Florida,johnsonu.edu/,Kissimmee,FL,28.302547,-81.363053,
132903,University of Central Florida,www.ucf.edu/,Orlando,FL,28.602159,-81.200889,
132976,Charlotte Technical College,www.charlottetechcollege.net,Port Charlotte,FL,27.005558,-82.147238,
133021,Chipola College,www.chipola.edu,Marianna,FL,30.789228,-85.23139,
133155,Lorenzo Walker Technical College,lwtc.edu/,Naples,FL,26.141141,-81.763568,
133386,Daytona State College,www.DaytonaState.edu,Daytona Beach,FL,29.203275,-81.049685,
133465,South University-West Palm Beach,"www.southuniversity.edu/west-palm-beach#location=West%20Palm%20Beach,%20FL",Royal Palm Beach,FL,26.69215,-80.200219,
133492,Eckerd College,https://www.eckerd.edu,Saint Petersburg,FL,27.715798,-82.687043,
133508,Florida SouthWestern State College,www.fsw.edu,Fort Myers,FL,26.552403,-81.887102,
133526,Edward Waters College,www.ewc.edu,Jacksonville,FL,30.34479,-81.684879,
133553,Embry-Riddle Aeronautical University-Daytona Beach,daytonabeach.erau.edu/,Daytona Beach,FL,29.189903,-81.048367,
133650,Florida Agricultural and Mechanical University,www.famu.edu,Tallahassee,FL,30.428504,-84.290226,
133669,Florida Atlantic University,www.fau.edu/,Boca Raton,FL,26.372421,-80.102978,
133702,Florida State College at Jacksonville,www.fscj.edu,Jacksonville,FL,30.334918,-81.659901,
133711,Flagler College-St Augustine,https://www.flagler.edu,Saint Augustine,FL,29.892733,-81.314887,
133809,Florida College,www.floridacollege.edu,Temple Terrace,FL,28.034936,-82.383289,
133845,Concorde Career Institute-Jacksonville,https://www.concorde.edu/campus/jacksonville-florida,Jacksonville,FL,30.23886,-81.581748,
133854,Concorde Career Institute-Miramar,https://www.concorde.edu/campus/miramar-florida?SourceID=GOBRND&opti_ca=184111063&opti_ag=12068405503&opti_ad=229977911707&opti_key=kwd-11641010364&gc,Miramar,FL,25.977088,-80.291516,
133863,Concorde Career Institute-Tampa,https://www.concorde.edu/campus/tampa-florida,Tampa,FL,27.959148,-82.514341,
133872,AdventHealth University,www.ahu.edu,Orlando,FL,28.576142,-81.367687,
133881,Florida Institute of Technology,www.fit.edu,Melbourne,FL,28.065815,-80.622893,
133942,Florida Institute of Ultrasound Inc,www.fiuonline.net,Pensacola,FL,30.524582,-87.220895,
133951,Florida International University,www.fiu.edu,Miami,FL,25.75732,-80.373928,
133960,The College of the Florida Keys,https://www.fkcc.edu,Key West,FL,24.582748,-81.74446,
133979,Florida Memorial University,www.fmuniv.edu,Miami Gardens,FL,25.918278,-80.270753,
133997,Florida Career College-Miami,https://www.floridacareercollege.edu/,Miami,FL,25.756567,-80.36778,
134024,Florida School of Massage,floridaschoolofmassage.com/,Gainesville,FL,29.593428,-82.338273,
134079,Florida Southern College,www.flsouthern.edu,Lakeland,FL,28.032443,-81.948203,
134097,Florida State University,www.fsu.edu,Tallahassee,FL,30.440756,-84.291921,
134112,Florida Technical College,www.ftccollege.edu,Orlando,FL,28.573275,-81.196503,
134130,University of Florida,www.ufl.edu/,Gainesville,FL,29.64629,-82.347911,
134228,Fort Pierce Beauty Academy,fpbeauty.com,Fort Pierce,FL,27.411962,-80.325377,
134237,Full Sail University,www.fullsail.edu,Winter Park,FL,28.596546,-81.301286,
134291,George Stone Technical College,www.georgestonecollege.edu,Pensacola,FL,30.487547,-87.290659,
134307,George T Baker Aviation Technical College,https://www.bakeraviationtechcollege.com/,Miami,FL,25.804092,-80.263591,
134343,Gulf Coast State College,https://www.gulfcoast.edu/default.htm,Panama City,FL,30.185542,-85.727918,
134495,Hillsborough Community College,https://www.hccfl.edu,Tampa,FL,27.934888,-82.456253,
134510,Hobe Sound Bible College,www.hsbc.edu,Hobe Sound,FL,27.066304,-80.13184,
134529,Hollywood Institute of Beauty Careers,www.hi.edu,Hollywood,FL,26.007139,-80.209125,
134574,Cortiva Institute-Florida,www.cortiva.com,St. Petersburg,FL,27.793547,-82.680031,
134608,Indian River State College,www.irsc.edu,Fort Pierce,FL,27.42416,-80.358682,
134714,International Academy,www.intl-academy.com,South Daytona,FL,29.162159,-80.997811,
134811,AI Miami International University of Art and Design,www.artinstitutes.edu/miami/,Miami,FL,25.790008,-80.18839,
134945,Jacksonville University,https://www.ju.edu/index.php,Jacksonville,FL,30.353227,-81.60458,
135081,Keiser University-Ft Lauderdale,www.keiseruniversity.edu,Fort Lauderdale,FL,26.185869,-80.163959,
135142,La Belle Beauty School,labellebeauty.net,Hialeah,FL,25.86695,-80.312711,
135160,Florida Gateway College,https://www.fgc.edu/,Lake City,FL,30.175298,-82.5679,
135179,Lake Technical College,www.laketech.org,Eustis,FL,28.833446,-81.690874,
135188,Lake-Sumter State College,www.lssc.edu,Leesburg,FL,28.828649,-81.797193,
135267,Fort Myers Technical College,www.fortmyerstech.edu,Fort Myers,FL,26.647517,-81.836596,
135276,Lively Technical College,www.livelytech.com,Tallahassee,FL,30.448534,-84.339057,
135294,Lindsey Hopkins Technical College,www.lindseyhopkins.edu/,Miami,FL,25.794676,-80.208154,
135337,Loraines Academy & Spa,www.genesiscareer.edu/loraines-academy-spa-st-petersburg-fl/,Saint Petersburg,FL,27.783077,-82.713964,
135364,Luther Rice College & Seminary,www.lutherrice.edu,Lithonia,GA,33.698126,-84.123179,
135391,State College of Florida-Manatee-Sarasota,www.scf.edu,Bradenton,FL,27.43804,-82.590887,
135407,Manatee Technical College,manateetech.edu/,Bradenton,FL,27.447894,-82.481088,
135522,Traviss Technical College,www.traviss.edu,Lakeland,FL,27.995822,-81.892381,
135559,Merryfield School of Pet Grooming,https://www.merryfield.edu/,Oakland Park,FL,26.19044,-80.129991,
135610,Trinity International University-Florida,florida.tiu.edu,Miami,FL,25.68307,-80.417646,
135647,Miami Lakes Educational Center and Technical College,miamilakes.edu,Miami Lakes,FL,25.916128,-80.29513,
135717,Miami Dade College,www.mdc.edu,Miami,FL,25.777717,-80.190856,
135726,University of Miami,www.miami.edu/,Coral Gables,FL,25.72126,-80.278662,
135735,Orange Technical College-Mid Florida Campus,www.orangetechcollege.net,Orlando,FL,28.471695,-81.415996,
135771,Beauty Schools of America-Miami,www.bsa.edu,Miami,FL,25.759918,-80.304459,
136109,Paul Mitchell the School-Jacksonville,paulmitchell.edu/jacksonville,Jacksonville,FL,30.259433,-81.527515,
136145,North Florida College,https://www.nfcc.edu,Madison,FL,30.473841,-83.420732,
136172,University of North Florida,https://www.unf.edu,Jacksonville,FL,30.27194,-81.509144,
136215,Nova Southeastern University,www.nova.edu,Fort Lauderdale,FL,26.079337,-80.24248,https://www.tampabay.com/news/education/2021/04/02/nova-southeastern-university-requires-covid-vaccines-before-fall-classes/
136233,Northwest Florida State College,https://www.nwfsc.edu/,Niceville,FL,30.540017,-86.47456,
136303,Orange Technical College-Orlando Campus,https://www.orangetechcollege.net,Orlando,FL,28.550422,-81.383783,
136330,Palm Beach Atlantic University,www.pba.edu,West Palm Beach,FL,26.7044,-80.05247,
136358,Palm Beach State College,www.palmbeachstate.edu/,Lake Worth,FL,26.61256,-80.08653,
136400,Pasco-Hernando State College,https://www.phsc.edu,New Port Richey,FL,28.2751,-82.646727,
136473,Pensacola State College,www.pensacolastate.edu,Pensacola,FL,30.479267,-87.200265,
136491,Pinellas Technical College-Clearwater,www.myptc.edu,Clearwater,FL,27.911922,-82.719064,
136516,Polk State College,www.polk.edu,Winter Haven,FL,28.032411,-81.711873,
136659,Radford M Locklin Technical College,www.locklintech.com,Milton,FL,30.648077,-87.09971,
136701,Saint Vincent de Paul Regional Seminary,www.svdp.edu,Boynton Beach,FL,26.516538,-80.125185,
136765,Ridge Technical College,www.ridge.edu/,Winter Haven,FL,28.076632,-81.654463,
136774,Ringling College of Art and Design,https://www.ringling.edu,Sarasota,FL,27.360931,-82.547803,
136826,Robert Morgan Educational Center and Technical College,rmec.dadeschools.net,Miami,FL,25.599247,-80.390054,
136950,Rollins College,www.rollins.edu,Winter Park,FL,28.592787,-81.349239,
137023,First Coast Technical College,fctc.edu/,Saint Augustine,FL,29.924377,-81.345829,
137032,Saint Leo University,www.saintleo.edu,Saint Leo,FL,28.336776,-82.257801,
137078,St Petersburg College,www.spcollege.edu,Clearwater,FL,27.90242,-82.717331,
137087,Pinellas Technical College-St. Petersburg,www.myptc.edu,Saint Petersburg,FL,27.761183,-82.681534,
137096,Santa Fe College,www.sfcollege.edu,Gainesville,FL,29.681037,-82.433143,
137120,Suncoast Technical College,suncoast.edu,Sarasota,FL,27.285486,-82.500827,
137209,Seminole State College of Florida,https://www.seminolestate.edu/,Sanford,FL,28.745482,-81.308003,
137245,Sheridan Technical College,www.sheridantechnicalcollege.edu/,Hollywood,FL,26.031736,-80.198024,
137272,St. John Vianney College Seminary,www.sjvcs.edu/,Miami,FL,25.742579,-80.337411,
137281,Saint Johns River State College,www.sjrstate.edu,Palatka,FL,29.647516,-81.681387,
137315,South Florida State College,www.southflorida.edu,Avon Park,FL,27.56974,-81.508667,
137351,University of South Florida-Main Campus,www.usf.edu,Tampa,FL,28.061458,-82.413232,
137476,St. Thomas University,www.stu.edu,Miami Gardens,FL,25.922071,-80.253273,
137546,Stetson University,www.stetson.edu,DeLand,FL,29.035475,-81.300746,
137564,Southeastern University,www.seu.edu/,Lakeland,FL,28.029733,-81.918382,
137591,Bene's Career Academy,https://www.benes.edu,New Port Richey,FL,28.259612,-82.728584,
137713,Riveroak Technical College,rtc.suwannee.k12.fl.us/,Live Oak,FL,30.281999,-82.992512,
137759,Tallahassee Community College,www.tcc.fl.edu,Tallahassee,FL,30.443866,-84.339,
137777,Talmudic College of Florida,www.talmudicu.edu,Miami Beach,FL,25.811996,-80.136293,
137801,Altierus Career College-Tampa,https://www.altierus.edu,Tampa,FL,27.996582,-82.497616,
137847,The University of Tampa,www.ut.edu,Tampa,FL,27.948455,-82.46483,
137856,Big Bend Technical College,https://www.bbtc.edu,Perry,FL,30.077954,-83.565783,
137865,Tom P Haney Technical Center,www.bayschools.com/htc,Panama City,FL,30.203363,-85.646585,
137953,Trinity Baptist College,www.tbc.edu,Jacksonville,FL,30.311171,-81.79626,
137962,Trinity College of Florida,trinitycollege.edu,Trinity,FL,28.194732,-82.678318,
138132,Fashion Focus Hair Academy,www.fashionfocusacad.com,Sarasota,FL,27.258563,-82.517445,
138187,Valencia College,valenciacollege.edu,Orlando,FL,28.520898,-81.471466,
138275,Warner University,www.warner.edu/academics/undergraduate_programs/admissions/criteria-for-admission/,Lake Wales,FL,27.825751,-81.599972,
138284,Florida Panhandle Technical College,fptc.edu,Chipley,FL,30.77449,-85.553345,
138293,Webber International University,www.webber.edu,Babson Park,FL,27.838778,-81.532315,
138309,Rasmussen College-Florida,https://rasmussen.edu,Ocala,FL,29.140099,-82.197343,
138354,The University of West Florida,uwf.edu,Pensacola,FL,30.549076,-87.218511,
138372,Orange Technical College-Westside Campus,https://www.orangetechcollege.net/campuses/Westside,Winter Garden,FL,28.559574,-81.571532,
138479,William T McFatter Technical College,www.mcfattertechnicalcollege.edu/,Davie,FL,26.085022,-80.232201,
138488,Orange Technical College-Winter Park Campus,https://www.orangetechcollege.net/campuses/winter_park,Winter Park,FL,28.604386,-81.36174,
138497,Withlacoochee Technical College,www.wtcollege.org,Inverness,FL,28.834861,-82.345563,
138558,Abraham Baldwin Agricultural College,https://www.abac.edu,Tifton,GA,31.481889,-83.528281,
138600,Agnes Scott College,www.agnesscott.edu,Decatur,GA,33.769268,-84.295459,
138655,Interactive College of Technology-Chamblee,www.ict.edu,Chamblee,GA,33.887956,-84.303159,
138664,Interactive College of Technology-Morrow,ict.edu,Morrow,GA,33.57233,-84.336098,
138682,Albany Technical College,www.albanytech.edu,Albany,GA,31.55434,-84.174284,
138716,Albany State University,https://www.asurams.edu/,Albany,GA,31.56928,-84.141825,
138761,Andrew College,www.andrewcollege.edu,Cuthbert,GA,31.772321,-84.795021,
138813,The Art Institute of Atlanta,www.artinstitutes.edu/atlanta,Atlanta,GA,33.936024,-84.355252,
138822,Georgia Career Institute,gci.edu/,Conyers,GA,33.64336,-84.018321,
138840,Atlanta Technical College,https://www.atlantatech.edu/,Atlanta,GA,33.712009,-84.404995,
138868,Point University,point.edu,West Point,GA,32.87912,-85.184931,
138901,Atlanta Metropolitan State College,www.atlm.edu,Atlanta,GA,33.70893,-84.404659,
138929,Atlanta's John Marshall Law School,www.johnmarshall.edu,Atlanta,GA,33.793394,-84.387898,
138938,Atlanta School of Massage,www.atlantaschoolofmassage.com,Atlanta,GA,33.922131,-84.311332,
138947,Clark Atlanta University,www.cau.edu,Atlanta,GA,33.747628,-84.412584,https://www.cau.edu/news/2021/04/AUCC-Schools-Vaccination-Statement-From-Member-Presidents.html
138956,Augusta Technical College,www.augustatech.edu,Augusta,GA,33.418992,-82.048439,
139144,Berry College,https://www.berry.edu/,Mount Berry,GA,34.290414,-85.189202,
139153,Beulah Heights University,www.beulah.edu,Atlanta,GA,33.736993,-84.35768,
139199,Brenau University,www.brenau.edu,Gainesville,GA,34.303117,-83.821513,
139205,Brewton-Parker College,www.bpc.edu,Mount Vernon,GA,32.185718,-82.586136,
139214,Brown College of Court Reporting,www.bccr.edu,Atlanta,GA,33.784769,-84.389979,
139250,College of Coastal Georgia,www.ccga.edu,Brunswick,GA,31.182745,-81.485973,
139278,West Georgia Technical College,https://www.westgatech.edu,Waco,GA,33.691657,-85.183666,
139311,Clayton  State University,www.clayton.edu,Morrow,GA,33.594079,-84.328174,
139348,Columbia Theological Seminary,WWW.CTSNET.EDU,Decatur,GA,33.764292,-84.281695,
139357,Columbus Technical College,www.columbustech.edu/,Columbus,GA,32.508076,-84.978551,
139366,Columbus State University,www.columbusstate.edu,Columbus,GA,32.50096,-84.94106,
139384,Georgia Northwestern Technical College,www.gntc.edu,Rome,GA,34.224673,-85.171361,
139393,Covenant College,www.covenant.edu,Lookout Mountain,GA,34.965161,-85.375066,
139463,Dalton State College,https://www.daltonstate.edu/index.cms,Dalton,GA,34.774221,-85.002775,
139506,Pro Way Hair School,www.prowayhairschool.com,Stone Mountain,GA,33.801802,-84.205183,
139579,South University-Savannah,"www.southuniversity.edu/savannah#location=Savannah,%20GA",Savannah,GA,31.999571,-81.105435,
139621,East Georgia State College,www.ega.edu,Swainsboro,GA,32.594944,-82.309021,
139630,Emmanuel College,www.ec.edu,Franklin Springs,GA,34.283641,-83.14822,
139658,Emory University,www.emory.edu,Atlanta,GA,33.790183,-84.325512,https://www.emory.edu/forward/covid-19/vaccine.html
139700,Georgia Highlands College,www.highlands.edu,Rome,GA,34.169791,-85.207356,
139719,Fort Valley State University,www.fvsu.edu,Fort Valley,GA,32.537595,-83.89537,
139746,Grady Health System Professional Schools,www.gradyhealth.org,Atlanta,GA,33.751852,-84.381561,
139755,Georgia Institute of Technology-Main Campus,www.gatech.edu,Atlanta,GA,33.77242,-84.394832,
139764,Georgia Southwestern State University,https://gsw.edu/,Americus,GA,32.054662,-84.217738,
139861,Georgia College & State University,www.gcsu.edu/,Milledgeville,GA,33.082787,-83.231962,
139931,Georgia Southern University,www.georgiasouthern.edu,Statesboro,GA,32.426153,-81.784045,
139940,Georgia State University,www.gsu.edu,Atlanta,GA,33.7527,-84.38667,
139959,University of Georgia,www.uga.edu,Athens,GA,33.956262,-83.374039,
139968,Gordon State College,https://www.gordonstate.edu,Barnesville,GA,33.04571,-84.154508,
139986,Southern Crescent Technical College,www.sctech.edu,Griffin,GA,33.255438,-84.291662,
139995,Gupton Jones College of Funeral Service,www.gupton-jones.edu/,Decatur,GA,33.710709,-84.179775,
140003,Gwinnett College-Lilburn,www.gwinnettcollege.edu,Lilburn,GA,33.901271,-84.121874,
140012,Gwinnett Technical College,https://www.GwinnettTech.edu,Lawrenceville,GA,33.962763,-84.066224,
140146,Interdenominational Theological Center,www.itc.edu,Atlanta,GA,33.752338,-84.409207,
140234,LaGrange College,www.lagrange.edu,Lagrange,GA,33.038564,-85.043113,
140243,Lanier Technical College,www.laniertech.edu,Gainesville,GA,34.330323,-83.778107,
140252,Life University,www.life.edu,Marietta,GA,33.932781,-84.514729,
140331,Chattahoochee Technical College,www.chattahoocheetech.edu,Marietta,GA,33.929092,-84.553722,
140340,Herzing University-Atlanta,https://www.herzing.edu,Atlanta,GA,33.754218,-84.387251,
140447,Mercer University,https://www.mercer.edu/,Macon,GA,32.831787,-83.648295,
140553,Morehouse College,www.morehouse.edu,Atlanta,GA,33.745982,-84.414917,https://www.cau.edu/news/2021/04/AUCC-Schools-Vaccination-Statement-From-Member-Presidents.html
140562,Morehouse School of Medicine,www.msm.edu,Atlanta,GA,33.742888,-84.41186,https://www.cau.edu/news/2021/04/AUCC-Schools-Vaccination-Statement-From-Member-Presidents.html
140678,North Georgia Technical College,https://northgatech.edu,Clarkesville,GA,34.639721,-83.530118,
140696,Oglethorpe University,oglethorpe.edu/,Atlanta,GA,33.875441,-84.333687,
140720,Paine College,www.paine.edu,Augusta,GA,33.469545,-81.993225,
140818,Piedmont College,https://www.piedmont.edu,Demorest,GA,34.566042,-83.542126,
140827,Miami Ad School-Atlanta,www.miamiadschool.com/advertising-school/atlanta,Atlanta,GA,33.812116,-84.396182,
140872,Reinhardt University,www.reinhardt.edu,Waleska,GA,34.319756,-84.554264,
140942,Savannah Technical College,www.savannahtech.edu,Savannah,GA,32.023211,-81.114753,
140951,Savannah College of Art and Design,www.scad.edu,Savannah,GA,32.072963,-81.093849,
140960,Savannah State University,www.savannahstate.edu/,Savannah,GA,32.024781,-81.063377,
140988,Shorter University,https://www.shorter.edu/,Rome,GA,34.257543,-85.196529,
141006,South Georgia Technical College,www.southgatech.edu,Americus,GA,32.116663,-84.188321,
141015,The Creative Circus,https://www.creativecircus.edu,Atlanta,GA,33.813156,-84.361989,
141060,Spelman College,www.spelman.edu,Atlanta,GA,33.745279,-84.411527,https://www.cau.edu/news/2021/04/AUCC-Schools-Vaccination-Statement-From-Member-Presidents.html
141167,Thomas University,www.thomasu.edu,Thomasville,GA,30.815576,-83.963587,
141185,Toccoa Falls College,tfc.edu,Toccoa Falls,GA,34.593414,-83.357617,
141237,Truett McConnell University,https://truett.edu,Cleveland,GA,34.596306,-83.748911,
141255,Wiregrass Georgia Technical College,www.wiregrass.edu,Valdosta,GA,30.889221,-83.35381,
141264,Valdosta State University,www.valdosta.edu,Valdosta,GA,30.847402,-83.289282,
141325,Wesleyan College,https://www.wesleyancollege.edu,Macon,GA,32.876037,-83.715417,
141334,University of West Georgia,www.westga.edu,Carrollton,GA,33.573621,-85.097762,
141361,Young Harris College,www.yhc.edu,Young Harris,GA,34.933523,-83.84587,
141486,Chaminade University of Honolulu,https://www.chaminade.edu,Honolulu,HI,21.28995,-157.807851,
141565,University of Hawaii at Hilo,https://hilo.hawaii.edu/,Hilo,HI,19.701189,-155.080847,
141574,University of Hawaii at Manoa,https://manoa.hawaii.edu/,Honolulu,HI,21.298598,-157.818979,
141608,Hawaii Institute of Hair Design,www.hihdhawaii.net,Honolulu,HI,21.31146,-157.861609,
141644,Hawaii Pacific University,https://www.hpu.edu/,Honolulu,HI,21.310306,-157.859645,
141680,Honolulu Community College,https://www.honolulu.hawaii.edu/,Honolulu,HI,21.321785,-157.87,
141796,Kapiolani Community College,https://www.kapiolani.hawaii.edu/,Honolulu,HI,21.27148,-157.800213,
141802,Kauai Community College,https://www.kauai.hawaii.edu/,Lihue,HI,21.968887,-159.395883,
141811,Leeward Community College,www.leeward.hawaii.edu/,Pearl City,HI,21.39267,-157.983771,
141839,University of Hawaii Maui College,maui.hawaii.edu/,Kahului,HI,20.88956,-156.477252,
141945,Travel Institute of the Pacific,WWW.TIPHAWAII.COM,Honolulu,HI,21.299035,-157.84134,
141981,University of Hawaii-West Oahu,https://westoahu.hawaii.edu/,Kapolei,HI,21.35531,-158.056403,
141990,Windward Community College,https://windward.hawaii.edu/,Kaneohe,HI,21.407051,-157.813307,
142054,Carrington College-Boise,https://carrington.edu/,Boise,ID,43.615295,-116.260675,
142090,Boise Bible College,www.boisebible.edu,Boise,ID,43.658651,-116.291321,
142115,Boise State University,https://www.boisestate.edu,Boise,ID,43.604284,-116.203301,
142179,College of Eastern Idaho,www.cei.edu,Idaho Falls,ID,43.486041,-111.985519,
142276,Idaho State University,www.isu.edu/,Pocatello,ID,42.863832,-112.432312,
142285,University of Idaho,www.uidaho.edu,Moscow,ID,46.727406,-117.014167,
142294,The College of Idaho,www.collegeofidaho.edu,Caldwell,ID,43.652284,-116.677992,
142328,Lewis-Clark State College,www.lcsc.edu,Lewiston,ID,46.412199,-117.024875,
142407,Aveda Institute-Twin Falls,www.avedaidaho.com,Twin Falls,ID,42.593567,-114.461545,
142416,Mr Leon's School of Hair Design-Moscow,mrleons.com,Moscow,ID,46.729532,-117.001162,
142443,North Idaho College,www.nic.edu/,Coeur d'Alene,ID,47.67569,-116.798905,
142461,Northwest Nazarene University,www.nnu.edu,Nampa,ID,43.562411,-116.565783,
142489,Elevate Salon Institute-Chubbuck,https://www.esichubbuck.com,Chubbuck,ID,42.919964,-112.464554,
142522,Brigham Young University-Idaho,www.byui.edu,Rexburg,ID,43.818408,-111.782431,
142559,College of Southern Idaho,www.csi.edu,Twin Falls,ID,42.579837,-114.473901,
142832,Adler University,www.adler.edu,Chicago,IL,41.882414,-87.629156,
142887,American Academy of Art,www.aaart.edu,Chicago,IL,41.87742,-87.624788,
142957,American Islamic College,www.aicusa.edu,Chicago,IL,41.954969,-87.646898,
143048,School of the Art Institute of Chicago,www.saic.edu,Chicago,IL,41.88105,-87.625758,
143084,Augustana College,www.augustana.edu,Rock Island,IL,41.502365,-90.55057,
143118,Aurora University,https://aurora.edu,Aurora,IL,41.753631,-88.349023,
143181,Tricoci University of Beauty Culture-Urbana,www.tricociuniversity.edu,Urbana,IL,40.117729,-88.205988,
143215,Southwestern Illinois College,https://www.swic.edu,Belleville,IL,38.516406,-89.924466,
143233,Bethany Theological Seminary,www.bethanyseminary.edu,Richmond,IN,39.826244,-84.910689,
143279,Black Hawk College,www.bhc.edu,Moline,IL,41.477283,-90.447799,
143288,Blackburn College,www.blackburn.edu,Carlinville,IL,39.287896,-89.870241,
143297,Blessing Rieman College of Nursing and Health Sciences,www.brcn.edu,Quincy,IL,39.949641,-91.357497,
143303,Blessing Hospital School of Radiologic Technology,www.blessinghealthsystem.org,Quincy,IL,39.935084,-91.391542,
143358,Bradley University,www.bradley.edu,Peoria,IL,40.696896,-89.616786,
143376,Paul Mitchell the School-Bradley,paulmitchell.edu/bradley,Bourbonnais,IL,41.172891,-87.847099,
143464,Cameo Beauty Academy,www.cameobeautyacademy.com,Oak Lawn,IL,41.716051,-87.740894,
143473,Cannella School of Hair Design-Villa Park,cannellabeautyschools.com,Villa Park,IL,41.90417,-87.994628,
143482,Cannella School of Hair Design-Chicago,cannellabeautyschools.com,Chicago,IL,41.731381,-87.551622,
143491,Cannella School of Hair Design-Chicago,cannellabeautyschools.com,Chicago,IL,41.815763,-87.701198,
143543,Empire Beauty School-Hanover Park,www.empire.edu,Hanover Park,IL,41.977516,-88.135725,
143552,Capri Beauty College,capri.edu,Oak Forest,IL,41.603863,-87.771567,
143613,Carl Sandburg College,www.sandburg.edu,Galesburg,IL,40.98128,-90.408203,
143659,Catholic Theological Union at Chicago,www.ctu.edu,Chicago,IL,41.797895,-87.585989,
143695,La James International College-East Moline,www.ljic.edu,East Moline,IL,41.490319,-90.449351,
143853,Midwestern University-Downers Grove,www.midwestern.edu,Downers Grove,IL,41.828115,-87.998342,
143978,The Chicago School of Professional Psychology at Chicago,www.thechicagoschool.edu,Chicago,IL,41.888293,-87.63379,
144005,Chicago State University,www.csu.edu,Chicago,IL,41.718446,-87.609384,
144014,Chicago Theological Seminary,https://www.ctschicago.edu,Chicago,IL,41.785701,-87.591178,
144050,University of Chicago,WWW.UCHICAGO.EDU,Chicago,IL,41.787994,-87.599539,
144157,City Colleges of Chicago-Kennedy-King College,www.ccc.edu/colleges/kennedy/pages/default.aspx,Chicago,IL,41.780253,-87.643425,
144166,City Colleges of Chicago-Malcolm X College,www.ccc.edu/colleges/malcolm-x/pages/default.aspx,Chicago,IL,41.878092,-87.675321,
144175,City Colleges of Chicago-Olive-Harvey College,ccc.edu/colleges/olive-harvey/pages/default.aspx,Chicago,IL,41.709997,-87.589249,
144184,City Colleges of Chicago-Harry S Truman College,ccc.edu/colleges/truman/pages/default.aspx,Chicago,IL,41.964502,-87.659107,
144193,City Colleges of Chicago-Richard J Daley College,ccc.edu/colleges/daley/pages/default.aspx,Chicago,IL,41.755955,-87.723981,
144209,City Colleges of Chicago-Harold Washington College,www.ccc.edu/colleges/washington/Pages/default.aspx,Chicago,IL,41.886067,-87.626596,
144218,City Colleges of Chicago-Wilbur Wright College,ccc.edu/colleges/wright/pages/default.aspx,Chicago,IL,41.958774,-87.787868,
144281,Columbia College Chicago,www.colum.edu,Chicago,IL,41.874261,-87.624667,https://www.colum.edu/reopening/vaccinations
144351,Concordia University-Chicago,www.cuchicago.edu,River Forest,IL,41.898696,-87.809482,
144485,Coyne College,www.coynecollege.edu,Chicago,IL,41.882558,-87.627413,
144564,Danville Area Community College,www.dacc.edu,Danville,IL,40.127539,-87.587884,
144573,Tricoci University of Beauty Culture-Danville,www.tricociuniversity.edu,Danville,IL,40.075809,-87.636314,
144740,DePaul University,https://www.depaul.edu,Chicago,IL,41.877618,-87.62724,https://resources.depaul.edu/newsline/sections/campus-and-community/Pages/COVID-19-vaccine-April-21.aspx
144795,Cosmetology & Spa Academy,www.cosmetologyandspaacademy.com,Crystal Lake,IL,42.24918,-88.294087,
144865,College of DuPage,www.cod.edu,Glen Ellyn,IL,41.841577,-88.071635,
144883,East-West University,www.eastwest.edu,Chicago,IL,41.871309,-87.624793,
144892,Eastern Illinois University,https://www.eiu.edu/,Charleston,IL,39.479843,-88.175658,
144944,Elgin Community College,www.elgin.edu,Elgin,IL,42.018066,-88.32194,
144962,Elmhurst College,www.elmhurst.edu,Elmhurst,IL,41.897164,-87.945369,
144971,Eureka College,www.eureka.edu,Eureka,IL,40.71482,-89.269624,
145099,First Institute of Travel Inc.,www.FIRSTINSTITUTE.edu,Crystal Lake,IL,42.21926,-88.339468,
145239,Fox College,www.foxcollege.edu,Bedford Park,IL,41.771488,-87.744728,
145275,Garrett-Evangelical Theological Seminary,www.garrett.edu,Evanston,IL,42.056221,-87.675497,
145309,Gem City College,www.gemcitycollege.com,Quincy,IL,39.926394,-91.404218,
145336,Governors State University,www.govst.edu/,University Park,IL,41.449103,-87.716441,
145354,Graham Hospital School of Nursing,grahamschoolofnursing.org,Canton,IL,40.552962,-90.038776,
145372,Greenville University,www.greenville.edu,Greenville,IL,38.894162,-89.40824,
145406,G Skin & Beauty Institute,www.gbeautyinstitutes.com,Schaumburg,IL,42.061983,-88.083218,
145424,Hair Professionals Career College,hairpros.edu,Sycamore,IL,41.962221,-88.718145,
145433,Hair Professionals School of Cosmetology,hairpros.edu,Oswego,IL,41.682591,-88.364727,
145497,Hebrew Theological College,www.htc.edu/,Skokie,IL,42.010103,-87.760874,
145521,Highland Community College,www.highland.edu,Freeport,IL,42.283344,-89.67342,
145558,Rosalind Franklin University of Medicine and Science,www.rosalindfranklin.edu/,North Chicago,IL,42.300069,-87.859632,
145600,University of Illinois at Chicago,www.uic.edu,Chicago,IL,41.871837,-87.650503,
145619,Benedictine University,www.ben.edu,Lisle,IL,41.777569,-88.097307,
145628,Illinois College of Optometry,WWW.ICO.EDU,Chicago,IL,41.835447,-87.623016,
145637,University of Illinois at Urbana-Champaign,www.illinois.edu/,Champaign,IL,40.104718,-88.229114,
145646,Illinois Wesleyan University,www.iwu.edu,Bloomington,IL,40.489901,-88.992014,
145682,Illinois Central College,icc.edu,East Peoria,IL,40.707235,-89.52485,
145691,Illinois College,www.ic.edu,Jacksonville,IL,39.7313,-90.246171,
145707,Olney Central College,www.iecc.edu/occ,Olney,IL,38.735913,-88.099589,
145725,Illinois Institute of Technology,web.iit.edu/,Chicago,IL,41.8313,-87.627321,
145813,Illinois State University,illinoisstate.edu/,Normal,IL,40.509403,-88.990058,
145831,Illinois Valley Community College,https://www.ivcc.edu/,Oglesby,IL,41.30744,-89.100887,
145886,Institute for Clinical Social Work,www.icsw.edu,Chicago,IL,41.876064,-87.627217,
146205,John A Logan College,https://www.jalc.edu,Carterville,IL,37.747453,-89.09021,
146241,The John Marshall Law School,www.jmls.edu,Chicago,IL,41.877966,-87.628567,
146278,John Wood Community College,www.jwcc.edu,Quincy,IL,39.913741,-91.335828,
146296,Joliet Junior College,www.jjc.edu,Joliet,IL,41.500535,-88.180985,
146339,Judson University,www.judsonu.edu,Elgin,IL,42.061754,-88.291336,
146348,Kankakee Community College,www.kcc.edu,Kankakee,IL,41.098178,-87.851047,
146366,Kaskaskia College,https://www.kaskaskia.edu,Centralia,IL,38.562112,-89.191974,
146418,Kishwaukee College,www.kish.edu,Malta,IL,41.938234,-88.880524,
146427,Knox College,https://www.knox.edu,Galesburg,IL,40.943064,-90.373165,
146454,Educators of Beauty College of Cosmetology-Peru,www.educatorsofbeauty.com,PERU,IL,41.354338,-89.118454,
146472,College of Lake County,WWW.CLCILLINOIS.EDU,Grayslake,IL,42.354164,-88.012291,
146481,Lake Forest College,www.lakeforest.edu,Lake Forest,IL,42.249574,-87.827454,
146490,Lake Forest Graduate School of Management,www.lfgsm.edu,Lake Forest,IL,42.243432,-87.893204,
146506,Lake Land College,www.lakelandcollege.edu/,Mattoon,IL,39.416969,-88.380835,
146533,Lakeview College of Nursing,www.lakeviewcol.edu,Danville,IL,40.13855,-87.644379,
146603,Lewis and Clark Community College,www.lc.edu,Godfrey,IL,38.951624,-90.194405,
146612,Lewis University,www.lewisu.edu,Romeoville,IL,41.605432,-88.079032,
146667,Lincoln Christian University,www.lincolnchristian.edu,Lincoln,IL,40.148924,-89.346721,
146676,Lincoln College,lincolncollege.edu,Lincoln,IL,40.155442,-89.36153,
146685,Lincoln Land Community College,www.llcc.edu,Springfield,IL,39.721211,-89.611249,
146700,Lincoln College of Technology-Melrose Park,www.lincolntech.edu/campus/melrose-park-il,Melrose Park,IL,41.905577,-87.832162,
146719,Loyola University Chicago,https://www.luc.edu,Chicago,IL,42.000765,-87.656872,https://www.luc.edu/coronavirus/vaccine/
146728,Lutheran School of Theology at Chicago,www.lstc.edu/,Chicago,IL,41.79563,-87.598978,
146755,Trinity College of Nursing & Health Sciences,www.trinitycollegeqc.edu/default.aspx,Rock Island,IL,41.484924,-90.568862,
146807,Steven Papageorge Hair Academy,stevenpapageorgehairacademy.com,Chicago,IL,41.939685,-87.657152,
146816,MacCormac College,www.maccormac.edu,Chicago,IL,41.881898,-87.626657,
146825,MacMurray College,www.mac.edu,Jacksonville,IL,39.730918,-90.223986,
146977,McCormick Theological Seminary,https://www.mccormick.edu,Chicago,IL,41.79597,-87.598511,
147004,McHenry County College,www.mchenry.edu,Crystal Lake,IL,42.259111,-88.368956,
147013,McKendree University,https://www.mckendree.edu,Lebanon,IL,38.608154,-89.816822,
147031,Meadville Lombard Theological School,www.meadville.edu,Chicago,IL,41.874027,-87.624619,
147129,Methodist College,www.methodistcol.edu,Peoria,IL,40.7804,-89.682864,
147165,Midstate College,www.midstate.edu,Peoria,IL,40.761916,-89.598859,
147244,Millikin University,https://millikin.edu,Decatur,IL,39.842612,-88.976298,
147341,Monmouth College,www.monmouthcollege.edu,Monmouth,IL,40.914824,-90.63731,
147369,Moody Bible Institute,https://www.moody.edu,Chicago,IL,41.897822,-87.633459,
147378,Moraine Valley Community College,www.morainevalley.edu,Palos Hills,IL,41.694613,-87.836915,
147396,Morrison Institute of Technology,www.morrisontech.edu,Morrison,IL,41.7971,-89.965963,
147411,Morton College,www.morton.edu,Cicero,IL,41.824303,-87.762306,
147439,Mr John's School of Cosmetology Esthetics & Nails-Decatur,www.mrjohns.com,Decatur,IL,39.846081,-88.933574,
147536,National Louis University,www.nl.edu,Chicago,IL,41.880093,-87.624699,
147590,National University of Health Sciences,https://www.nuhs.edu,Lombard,IL,41.861697,-88.013171,
147642,Niles School of Cosmetology,nilesbeautyschool.com,Niles,IL,42.027601,-87.815113,
147660,North Central College,northcentralcollege.edu,Naperville,IL,41.77576,-88.14279,
147679,North Park University,www.northpark.edu,Chicago,IL,41.975268,-87.709948,
147697,Northern Baptist Theological Seminary,www.seminary.edu,Lisle,IL,41.809104,-88.056162,
147703,Northern Illinois University,www.niu.edu,Dekalb,IL,41.933869,-88.766428,
147767,Northwestern University,www.northwestern.edu,Evanston,IL,42.050356,-87.679858,
147776,Northeastern Illinois University,www.neiu.edu/,Chicago,IL,41.980399,-87.718983,
147800,Oakton Community College,www.oakton.edu,Des Plaines,IL,42.061893,-87.880644,
147819,Oehrlein School of Cosmetology,oehrleinschool.com,East Peoria,IL,40.665832,-89.55712,
147828,Olivet Nazarene University,www.olivet.edu,Bourbonnais,IL,41.155237,-87.875165,
147916,Parkland College,https://www.parkland.edu/,Champaign,IL,40.131963,-88.290359,
148007,Prairie State College,www.prairiestate.edu,Chicago Heights,IL,41.525316,-87.638943,
148016,Principia College,www.principiacollege.edu,Elsah,IL,38.948835,-90.350285,
148098,Professional's Choice Hair Design Academy,www.pchairdesign.com,Joliet,IL,41.523122,-88.148846,
148131,Quincy University,www.quincy.edu,Quincy,IL,39.938898,-91.385975,
148256,Rend Lake College,www.rlc.edu,Ina,IL,38.131481,-88.918283,
148292,Richland Community College,www.richland.edu,Decatur,IL,39.883887,-88.894125,
148335,Robert Morris University Illinois,https://robertmorris.edu/,Chicago,IL,41.876278,-87.627068,
148380,Rock Valley College,www.rockvalleycollege.edu,Rockford,IL,42.306174,-88.993544,
148399,Madison Media Institute-Rockford Career College,www.rockfordcareercollege.edu,Rockford,IL,42.255723,-89.02722,
148405,Rockford University,www.rockford.edu,Rockford,IL,42.270639,-89.019536,
148487,Roosevelt University,www.roosevelt.edu,Chicago,IL,41.876055,-87.624952,
148496,Dominican University,www.dom.edu/,River Forest,IL,41.902678,-87.823003,
148511,Rush University,WWW.RUSHU.RUSH.EDU,Chicago,IL,41.874742,-87.668581,
148575,Saint Francis Medical Center College of Nursing,www.sfmccon.edu/,Peoria,IL,40.701241,-89.590322,
148584,University of St Francis,https://www.stfrancis.edu/,Joliet,IL,41.532225,-88.096057,
148593,St. John's College-Department of Nursing,https://www.sjcs.edu/,Springfield,IL,39.807602,-89.64532,
148627,Saint Xavier University,https://WWW.SXU.EDU,Chicago,IL,41.707199,-87.714749,
148654,University of Illinois at Springfield,www.uis.edu,Springfield,IL,39.729524,-89.616796,
148672,Sauk Valley Community College,www.svcc.edu,Dixon,IL,41.817659,-89.596483,
148821,Shawnee Community College,www.shawneecc.edu,Ullin,IL,37.270198,-89.03352,
148876,Saint Augustine College,www.staugustine.edu,Chicago,IL,41.972414,-87.662806,
148885,University of Saint Mary of the Lake,www.usml.edu,Mundelein,IL,42.280702,-88.000262,
148937,Southeastern Illinois College,www.sic.edu,Harrisburg,IL,37.75174,-88.436631,
148955,National Latino Education Institute,www.nlei.org,Chicago,IL,41.822756,-87.675917,
148982,Spertus College,www.spertus.edu,Chicago,IL,41.873881,-87.624785,
148991,Spoon River College,www.src.edu,Canton,IL,40.527991,-90.07233,
149028,Saint Anthony College of Nursing,https://www.sacn.edu,Rockford,IL,42.310147,-88.991968,
149204,Educators of Beauty College of Cosmetology-Sterling,www.educatorsofbeauty.com,Sterling,IL,41.788581,-89.692522,
149222,Southern Illinois University-Carbondale,www.siu.edu,Carbondale,IL,37.714193,-89.217273,
149231,Southern Illinois University-Edwardsville,www.siue.edu,Edwardsville,IL,38.793949,-89.997779,
149310,Taylor Business Institute,www.tbiil.edu,Chicago,IL,41.885452,-87.62671,
149329,Telshe Yeshiva-Chicago,https://telsheyeshivachicago.com,Chicago,IL,41.975536,-87.71755,
149365,South Suburban College,https://www.ssc.edu,South Holland,IL,41.606427,-87.619123,
149499,Tri-County Beauty Academy,tcbacademy.net,LITCHFIELD,IL,39.176137,-89.655742,
149505,Trinity Christian College,www.trnty.edu,Palos Heights,IL,41.667687,-87.783973,
149514,Trinity International University-Illinois,www.tiu.edu,Deerfield,IL,42.197945,-87.880851,
149532,Triton College,www.triton.edu,River Grove,IL,41.916082,-87.841056,
149550,University of Spa & Cosmetology Arts,www.uscart.com,Springfield,IL,39.76672,-89.710839,
149639,VanderCook College of Music,www.vandercook.edu,Chicago,IL,41.836833,-87.629138,
149727,Waubonsee Community College,https://www.waubonsee.edu,Sugar Grove,IL,41.795955,-88.459925,
149763,Resurrection University,www.resu.edu,Chicago,IL,41.90748,-87.685291,
149772,Western Illinois University,www.wiu.edu,Macomb,IL,40.468086,-90.686899,
149781,Wheaton College,www.wheaton.edu,Wheaton,IL,41.870176,-88.099643,
149842,William Rainey Harper College,https://www.harpercollege.edu/index.php,Palatine,IL,42.081829,-88.072811,
150048,Ancilla College,https://www.ancilla.edu/,Donaldson,IN,41.337958,-86.445263,
